{
  "01217f5e840ff8cfdbbb6760db3d87015bf9ec69": [
    {
      "doc_id": "01217f5e840ff8cfdbbb6760db3d87015bf9ec69",
      "place_name": "Singapore",
      "geonameid": "1880252",
      "hit_lat": "1.28967",
      "hit_lon": "103.85007",
      "hit_country_iso2": "SG",
      "hit_admin1_name": "",
      "hit_admin1_code": "",
      "feature_class": "P",
      "feature_code": "PPLC",
      "candidate_reason": "by_country",
      "hit_type": "normal",
      "rank": "1",
      "ims_facility_id": "SIN",
      "unlocode": "SGSIN",
      "facility_name": "Singapore",
      "facility_city": "",
      "facility_country_iso2": "SG",
      "facility_admin1": "",
      "facility_lat": "1.28333",
      "facility_lon": "103.85",
      "distance_km": "0.7050187816064034",
      "name_score": "1.0",
      "admin_score": "0.0",
      "dist_score": "0.9905997495785813",
      "total_score": "0.8971799248735743"
    },
    {
      "doc_id": "01217f5e840ff8cfdbbb6760db3d87015bf9ec69",
      "place_name": "Batam",
      "geonameid": "6295587",
      "hit_lat": "1.14937",
      "hit_lon": "104.02491",
      "hit_country_iso2": "ID",
      "hit_admin1_name": "Riau",
      "hit_admin1_code": "37",
      "feature_class": "P",
      "feature_code": "PPL",
      "candidate_reason": "by_country",
      "hit_type": "normal",
      "rank": "1",
      "ims_facility_id": "BTM",
      "unlocode": "IDBTM",
      "facility_name": "Batam Island",
      "facility_city": "Kepulauan Riau",
      "facility_country_iso2": "ID",
      "facility_admin1": "KR",
      "facility_lat": "1.08333",
      "facility_lon": "104.03333",
      "distance_km": "7.402735813441795",
      "name_score": "1.0",
      "admin_score": "0.0",
      "dist_score": "0.9012968558207761",
      "total_score": "0.8703890567462328"
    },
    {
      "doc_id": "01217f5e840ff8cfdbbb6760db3d87015bf9ec69",
      "place_name": "Republic of Singapore",
      "geonameid": "1880251",
      "hit_lat": "1.36667",
      "hit_lon": "103.8",
      "hit_country_iso2": "SG",
      "hit_admin1_name": "",
      "hit_admin1_code": "00",
      "feature_class": "A",
      "feature_code": "PCLI",
      "candidate_reason": "by_country",
      "hit_type": "country",
      "rank": "5",
      "ims_facility_id": "SIN",
      "unlocode": "SGSIN",
      "facility_name": "Singapore",
      "facility_city": "",
      "facility_country_iso2": "SG",
      "facility_admin1": "",
      "facility_lat": "1.28333",
      "facility_lon": "103.85",
      "distance_km": "10.80607515791352",
      "name_score": "1.0",
      "admin_score": "0.0",
      "dist_score": "0.8559189978944863",
      "total_score": "0.8567756993683459"
    },
    {
      "doc_id": "01217f5e840ff8cfdbbb6760db3d87015bf9ec69",
      "place_name": "Batam",
      "geonameid": "6295587",
      "hit_lat": "1.14937",
      "hit_lon": "104.02491",
      "hit_country_iso2": "ID",
      "hit_admin1_name": "Riau",
      "hit_admin1_code": "37",
      "feature_class": "P",
      "feature_code": "PPL",
      "candidate_reason": "by_country",
      "hit_type": "normal",
      "rank": "2",
      "ims_facility_id": "BUR",
      "unlocode": "IDBUR",
      "facility_name": "Batu Ampar",
      "facility_city": "",
      "facility_country_iso2": "ID",
      "facility_admin1": "KR",
      "facility_lat": "1.16667",
      "facility_lon": "104.01667",
      "distance_km": "2.1306522589964714",
      "name_score": "0.7142857142857143",
      "admin_score": "0.0",
      "dist_score": "0.9715913032133804",
      "total_score": "0.7200488195354426"
    },
    {
      "doc_id": "01217f5e840ff8cfdbbb6760db3d87015bf9ec69",
      "place_name": "Singapore",
      "geonameid": "1880252",
      "hit_lat": "1.28967",
      "hit_lon": "103.85007",
      "hit_country_iso2": "SG",
      "hit_admin1_name": "",
      "hit_admin1_code": "",
      "feature_class": "P",
      "feature_code": "PPLC",
      "candidate_reason": "by_country",
      "hit_type": "normal",
      "rank": "2",
      "ims_facility_id": "BKM",
      "unlocode": "SGBKM",
      "facility_name": "Bukit Merah Estate",
      "facility_city": "Central Singapore",
      "facility_country_iso2": "SG",
      "facility_admin1": "01",
      "facility_lat": "1.28333",
      "facility_lon": "103.81667",
      "distance_km": "3.7793080867836326",
      "name_score": "0.72",
      "admin_score": "0.0",
      "dist_score": "0.9496092255095515",
      "total_score": "0.7168827676528655"
    },
    {
      "doc_id": "01217f5e840ff8cfdbbb6760db3d87015bf9ec69",
      "place_name": "Singapore",
      "geonameid": "1880252",
      "hit_lat": "1.28967",
      "hit_lon": "103.85007",
      "hit_country_iso2": "SG",
      "hit_admin1_name": "",
      "hit_admin1_code": "",
      "feature_class": "P",
      "feature_code": "PPLC",
      "candidate_reason": "by_country",
      "hit_type": "normal",
      "rank": "3",
      "ims_facility_id": "JUR",
      "unlocode": "SGJUR",
      "facility_name": "Jurong/Singapore",
      "facility_city": "",
      "facility_country_iso2": "SG",
      "facility_admin1": "",
      "facility_lat": "1.33333",
      "facility_lon": "103.7",
      "distance_km": "17.37468374476754",
      "name_score": "0.72",
      "admin_score": "0.0",
      "dist_score": "0.7683375500697661",
      "total_score": "0.6625012650209299"
    },
    {
      "doc_id": "01217f5e840ff8cfdbbb6760db3d87015bf9ec69",
      "place_name": "Republic of Singapore",
      "geonameid": "1880251",
      "hit_lat": "1.36667",
      "hit_lon": "103.8",
      "hit_country_iso2": "SG",
      "hit_admin1_name": "",
      "hit_admin1_code": "00",
      "feature_class": "A",
      "feature_code": "PCLI",
      "candidate_reason": "by_country",
      "hit_type": "country",
      "rank": "2",
      "ims_facility_id": "BKM",
      "unlocode": "SGBKM",
      "facility_name": "Bukit Merah Estate",
      "facility_city": "Central Singapore",
      "facility_country_iso2": "SG",
      "facility_admin1": "01",
      "facility_lat": "1.28333",
      "facility_lon": "103.81667",
      "distance_km": "9.450454044568794",
      "name_score": "0.631578947368421",
      "admin_score": "0.0",
      "dist_score": "0.8739939460724161",
      "total_score": "0.6411455522427774"
    },
    {
      "doc_id": "01217f5e840ff8cfdbbb6760db3d87015bf9ec69",
      "place_name": "Republic of Singapore",
      "geonameid": "1880251",
      "hit_lat": "1.36667",
      "hit_lon": "103.8",
      "hit_country_iso2": "SG",
      "hit_admin1_name": "",
      "hit_admin1_code": "00",
      "feature_class": "A",
      "feature_code": "PCLI",
      "candidate_reason": "by_country",
      "hit_type": "country",
      "rank": "10",
      "ims_facility_id": "JUR",
      "unlocode": "SGJUR",
      "facility_name": "Jurong/Singapore",
      "facility_city": "",
      "facility_country_iso2": "SG",
      "facility_admin1": "",
      "facility_lat": "1.33333",
      "facility_lon": "103.7",
      "distance_km": "11.718280755631644",
      "name_score": "0.5945945945945946",
      "admin_score": "0.0",
      "dist_score": "0.843756256591578",
      "total_score": "0.6098836337342302"
    },
    {
      "doc_id": "01217f5e840ff8cfdbbb6760db3d87015bf9ec69",
      "place_name": "Singapore",
      "geonameid": "1880252",
      "hit_lat": "1.28967",
      "hit_lon": "103.85007",
      "hit_country_iso2": "SG",
      "hit_admin1_name": "",
      "hit_admin1_code": "",
      "feature_class": "P",
      "feature_code": "PPLC",
      "candidate_reason": "by_country",
      "hit_type": "normal",
      "rank": "4",
      "ims_facility_id": "SCT",
      "unlocode": "SGSCT",
      "facility_name": "Singapore Container Terminal",
      "facility_city": "",
      "facility_country_iso2": "SG",
      "facility_admin1": "",
      "facility_lat": "1.26667",
      "facility_lon": "103.833",
      "distance_km": "3.184603887884378",
      "name_score": "0.5142857142857142",
      "admin_score": "0.0",
      "dist_score": "0.9575386148282083",
      "total_score": "0.595833013019891"
    },
    {
      "doc_id": "01217f5e840ff8cfdbbb6760db3d87015bf9ec69",
      "place_name": "Singapore",
      "geonameid": "1880252",
      "hit_lat": "1.28967",
      "hit_lon": "103.85007",
      "hit_country_iso2": "SG",
      "hit_admin1_name": "",
      "hit_admin1_code": "",
      "feature_class": "P",
      "feature_code": "PPLC",
      "candidate_reason": "by_country",
      "hit_type": "normal",
      "rank": "5",
      "ims_facility_id": "PAP",
      "unlocode": "SGPAP",
      "facility_name": "Pasir Panjang Wharves",
      "facility_city": "",
      "facility_country_iso2": "SG",
      "facility_admin1": "",
      "facility_lat": "1.26667",
      "facility_lon": "103.78333",
      "distance_km": "7.847724215923911",
      "name_score": "0.5",
      "admin_score": "0.0",
      "dist_score": "0.8953636771210145",
      "total_score": "0.5686091031363043"
    },
    {
      "doc_id": "01217f5e840ff8cfdbbb6760db3d87015bf9ec69",
      "place_name": "Singapore",
      "geonameid": "1880252",
      "hit_lat": "1.28967",
      "hit_lon": "103.85007",
      "hit_country_iso2": "SG",
      "hit_admin1_name": "",
      "hit_admin1_code": "",
      "feature_class": "P",
      "feature_code": "PPLC",
      "candidate_reason": "by_country",
      "hit_type": "normal",
      "rank": "6",
      "ims_facility_id": "SEM",
      "unlocode": "SGSEM",
      "facility_name": "Sembawang Port",
      "facility_city": "",
      "facility_country_iso2": "SG",
      "facility_admin1": "",
      "facility_lat": "1.449111111",
      "facility_lon": "103.818494444",
      "distance_km": "18.073165687225917",
      "name_score": "0.5454545454545454",
      "admin_score": "0.0",
      "dist_score": "0.7590244575036544",
      "total_score": "0.5549800645238235"
    },
    {
      "doc_id": "01217f5e840ff8cfdbbb6760db3d87015bf9ec69",
      "place_name": "Batam",
      "geonameid": "6295587",
      "hit_lat": "1.14937",
      "hit_lon": "104.02491",
      "hit_country_iso2": "ID",
      "hit_admin1_name": "Riau",
      "hit_admin1_code": "37",
      "feature_class": "P",
      "feature_code": "PPL",
      "candidate_reason": "by_country",
      "hit_type": "normal",
      "rank": "3",
      "ims_facility_id": "LBM",
      "unlocode": "IDLBM",
      "facility_name": "Lobam",
      "facility_city": "",
      "facility_country_iso2": "ID",
      "facility_admin1": "",
      "facility_lat": "1.0",
      "facility_lon": "104.26667",
      "distance_km": "31.59554499584638",
      "name_score": "0.6",
      "admin_score": "0.0",
      "dist_score": "0.5787260667220482",
      "total_score": "0.5336178200166144"
    },
    {
      "doc_id": "01217f5e840ff8cfdbbb6760db3d87015bf9ec69",
      "place_name": "Republic of Singapore",
      "geonameid": "1880251",
      "hit_lat": "1.36667",
      "hit_lon": "103.8",
      "hit_country_iso2": "SG",
      "hit_admin1_name": "",
      "hit_admin1_code": "00",
      "feature_class": "A",
      "feature_code": "PCLI",
      "candidate_reason": "by_country",
      "hit_type": "country",
      "rank": "1",
      "ims_facility_id": "SEM",
      "unlocode": "SGSEM",
      "facility_name": "Sembawang Port",
      "facility_city": "",
      "facility_country_iso2": "SG",
      "facility_admin1": "",
      "facility_lat": "1.449111111",
      "facility_lon": "103.818494444",
      "distance_km": "9.394737350274271",
      "name_score": "0.4117647058823529",
      "admin_score": "0.0",
      "dist_score": "0.8747368353296764",
      "total_score": "0.5094798741283146"
    }
  ],
  "0254d5477ca27590277f8116af35f0882ea8ed57": [
    {
      "doc_id": "0254d5477ca27590277f8116af35f0882ea8ed57",
      "place_name": "Dubai",
      "geonameid": "292223",
      "hit_lat": "25.07725",
      "hit_lon": "55.30927",
      "hit_country_iso2": "AE",
      "hit_admin1_name": "Dubai",
      "hit_admin1_code": "03",
      "feature_class": "P",
      "feature_code": "PPLA",
      "candidate_reason": "by_country",
      "hit_type": "normal",
      "rank": "1",
      "ims_facility_id": "DXB",
      "unlocode": "AEDXB",
      "facility_name": "Dubai",
      "facility_city": "Dubayy [Dubai]",
      "facility_country_iso2": "AE",
      "facility_admin1": "DU",
      "facility_lat": "25.25",
      "facility_lon": "55.26667",
      "distance_km": "19.68156912763346",
      "name_score": "1.0",
      "admin_score": "1.0",
      "dist_score": "0.7375790782982206",
      "total_score": "0.9212737234894661"
    },
    {
      "doc_id": "0254d5477ca27590277f8116af35f0882ea8ed57",
      "place_name": "London",
      "geonameid": "6058560",
      "hit_lat": "42.98339",
      "hit_lon": "-81.23304",
      "hit_country_iso2": "CA",
      "hit_admin1_name": "Ontario",
      "hit_admin1_code": "08",
      "feature_class": "P",
      "feature_code": "PPL",
      "candidate_reason": "by_country",
      "hit_type": "normal",
      "rank": "1",
      "ims_facility_id": "LOB",
      "unlocode": "CALOB",
      "facility_name": "Lobo",
      "facility_city": "Ontario",
      "facility_country_iso2": "CA",
      "facility_admin1": "ON",
      "facility_lat": "43.0",
      "facility_lon": "-81.41667",
      "distance_km": "15.049091135925945",
      "name_score": "0.6",
      "admin_score": "1.0",
      "dist_score": "0.7993454515209875",
      "total_score": "0.6998036354562962"
    },
    {
      "doc_id": "0254d5477ca27590277f8116af35f0882ea8ed57",
      "place_name": "Dubai",
      "geonameid": "292223",
      "hit_lat": "25.07725",
      "hit_lon": "55.30927",
      "hit_country_iso2": "AE",
      "hit_admin1_name": "Dubai",
      "hit_admin1_code": "03",
      "feature_class": "P",
      "feature_code": "PPLA",
      "candidate_reason": "by_country",
      "hit_type": "normal",
      "rank": "2",
      "ims_facility_id": "DUJ",
      "unlocode": "AEDUJ",
      "facility_name": "The Palm Jumeirah",
      "facility_city": "Dubayy [Dubai]",
      "facility_country_iso2": "AE",
      "facility_admin1": "DU",
      "facility_lat": "25.127804599999997",
      "facility_lon": "55.15351511806982",
      "distance_km": "16.66037336365785",
      "name_score": "0.5555555555555556",
      "admin_score": "1.0",
      "dist_score": "0.7778616884845619",
      "total_score": "0.6666918398787018"
    },
    {
      "doc_id": "0254d5477ca27590277f8116af35f0882ea8ed57",
      "place_name": "Dubai",
      "geonameid": "292223",
      "hit_lat": "25.07725",
      "hit_lon": "55.30927",
      "hit_country_iso2": "AE",
      "hit_admin1_name": "Dubai",
      "hit_admin1_code": "03",
      "feature_class": "P",
      "feature_code": "PPLA",
      "candidate_reason": "by_country",
      "hit_type": "normal",
      "rank": "3",
      "ims_facility_id": "FRP",
      "unlocode": "AEFRP",
      "facility_name": "Free Port",
      "facility_city": "Dubayy [Dubai]",
      "facility_country_iso2": "AE",
      "facility_admin1": "DU",
      "facility_lat": "25.25",
      "facility_lon": "55.25",
      "distance_km": "20.113793500367926",
      "name_score": "0.5555555555555556",
      "admin_score": "1.0",
      "dist_score": "0.731816086661761",
      "total_score": "0.6528781593318616"
    },
    {
      "doc_id": "0254d5477ca27590277f8116af35f0882ea8ed57",
      "place_name": "Dubai",
      "geonameid": "292223",
      "hit_lat": "25.07725",
      "hit_lon": "55.30927",
      "hit_country_iso2": "AE",
      "hit_admin1_name": "Dubai",
      "hit_admin1_code": "03",
      "feature_class": "P",
      "feature_code": "PPLA",
      "candidate_reason": "by_country",
      "hit_type": "normal",
      "rank": "4",
      "ims_facility_id": "HZP",
      "unlocode": "AEHZP",
      "facility_name": "Hamriya Free Zone Port",
      "facility_city": "Dubayy [Dubai]",
      "facility_country_iso2": "AE",
      "facility_admin1": "DU",
      "facility_lat": "25.3",
      "facility_lon": "55.31667",
      "distance_km": "24.77985949515785",
      "name_score": "0.5555555555555556",
      "admin_score": "1.0",
      "dist_score": "0.6696018733978953",
      "total_score": "0.6342138953527019"
    },
    {
      "doc_id": "0254d5477ca27590277f8116af35f0882ea8ed57",
      "place_name": "Dubai",
      "geonameid": "292223",
      "hit_lat": "25.07725",
      "hit_lon": "55.30927",
      "hit_country_iso2": "AE",
      "hit_admin1_name": "Dubai",
      "hit_admin1_code": "03",
      "feature_class": "P",
      "feature_code": "PPLA",
      "candidate_reason": "by_country",
      "hit_type": "normal",
      "rank": "5",
      "ims_facility_id": "QWE",
      "unlocode": "AEQWE",
      "facility_name": "Jebel Ali Free Zone",
      "facility_city": "Dubayy [Dubai]",
      "facility_country_iso2": "AE",
      "facility_admin1": "DU",
      "facility_lat": "25.0",
      "facility_lon": "55.05",
      "distance_km": "27.49633938750976",
      "name_score": "0.5555555555555556",
      "admin_score": "1.0",
      "dist_score": "0.6333821414998699",
      "total_score": "0.6233479757832943"
    },
    {
      "doc_id": "0254d5477ca27590277f8116af35f0882ea8ed57",
      "place_name": "London",
      "geonameid": "6058560",
      "hit_lat": "42.98339",
      "hit_lon": "-81.23304",
      "hit_country_iso2": "CA",
      "hit_admin1_name": "Ontario",
      "hit_admin1_code": "08",
      "feature_class": "P",
      "feature_code": "PPL",
      "candidate_reason": "by_country",
      "hit_type": "normal",
      "rank": "2",
      "ims_facility_id": "DCS",
      "unlocode": "CADCS",
      "facility_name": "Dorchester",
      "facility_city": "Ontario",
      "facility_country_iso2": "CA",
      "facility_admin1": "ON",
      "facility_lat": "42.98333",
      "facility_lon": "-81.06667",
      "distance_km": "13.533340783823384",
      "name_score": "0.46153846153846156",
      "admin_score": "1.0",
      "dist_score": "0.8195554562156881",
      "total_score": "0.6227897137877834"
    },
    {
      "doc_id": "0254d5477ca27590277f8116af35f0882ea8ed57",
      "place_name": "London",
      "geonameid": "6058560",
      "hit_lat": "42.98339",
      "hit_lon": "-81.23304",
      "hit_country_iso2": "CA",
      "hit_admin1_name": "Ontario",
      "hit_admin1_code": "08",
      "feature_class": "P",
      "feature_code": "PPL",
      "candidate_reason": "by_country",
      "hit_type": "normal",
      "rank": "3",
      "ims_facility_id": "THA",
      "unlocode": "CATHA",
      "facility_name": "Thamesford",
      "facility_city": "Ontario",
      "facility_country_iso2": "CA",
      "facility_admin1": "ON",
      "facility_lat": "43.05",
      "facility_lon": "-80.98333",
      "distance_km": "21.610500452232866",
      "name_score": "0.46153846153846156",
      "admin_score": "1.0",
      "dist_score": "0.7118599939702284",
      "total_score": "0.5904810751141454"
    },
    {
      "doc_id": "0254d5477ca27590277f8116af35f0882ea8ed57",
      "place_name": "Dubai",
      "geonameid": "292223",
      "hit_lat": "25.07725",
      "hit_lon": "55.30927",
      "hit_country_iso2": "AE",
      "hit_admin1_name": "Dubai",
      "hit_admin1_code": "03",
      "feature_class": "P",
      "feature_code": "PPLA",
      "candidate_reason": "by_country",
      "hit_type": "normal",
      "rank": "6",
      "ims_facility_id": "JEA",
      "unlocode": "AEJEA",
      "facility_name": "Jebel Ali",
      "facility_city": "",
      "facility_country_iso2": "AE",
      "facility_admin1": "",
      "facility_lat": "25.0338168",
      "facility_lon": "55.1366041",
      "distance_km": "18.050919622388637",
      "name_score": "0.5333333333333333",
      "admin_score": "0.0",
      "dist_score": "0.7593210717014849",
      "total_score": "0.5477963215104454"
    },
    {
      "doc_id": "0254d5477ca27590277f8116af35f0882ea8ed57",
      "place_name": "London",
      "geonameid": "6058560",
      "hit_lat": "42.98339",
      "hit_lon": "-81.23304",
      "hit_country_iso2": "CA",
      "hit_admin1_name": "Ontario",
      "hit_admin1_code": "08",
      "feature_class": "P",
      "feature_code": "PPL",
      "candidate_reason": "by_country",
      "hit_type": "normal",
      "rank": "4",
      "ims_facility_id": "PST",
      "unlocode": "CAPST",
      "facility_name": "Port Stanley",
      "facility_city": "Ontario",
      "facility_country_iso2": "CA",
      "facility_admin1": "ON",
      "facility_lat": "42.6660437",
      "facility_lon": "-81.2121712",
      "distance_km": "35.328317584344994",
      "name_score": "0.46153846153846156",
      "admin_score": "1.0",
      "dist_score": "0.5289557655420667",
      "total_score": "0.5356098065856969"
    }
  ],
  "06417703f34cdebe6a9a18aee074bddebee7c0a3": [
    {
      "doc_id": "06417703f34cdebe6a9a18aee074bddebee7c0a3",
      "place_name": "Şalālah",
      "geonameid": "286621",
      "hit_lat": "17.01505",
      "hit_lon": "54.09237",
      "hit_country_iso2": "OM",
      "hit_admin1_name": "Dhofar",
      "hit_admin1_code": "08",
      "feature_class": "P",
      "feature_code": "PPLA",
      "candidate_reason": "by_country",
      "hit_type": "normal",
      "rank": "1",
      "ims_facility_id": "SLL",
      "unlocode": "OMSLL",
      "facility_name": "Salalah",
      "facility_city": "",
      "facility_country_iso2": "OM",
      "facility_admin1": "",
      "facility_lat": "17.0174945",
      "facility_lon": "54.1010923",
      "distance_km": "0.9664286608500878",
      "name_score": "1.0",
      "admin_score": "0.0",
      "dist_score": "0.9871142845219988",
      "total_score": "0.8961342853565997"
    },
    {
      "doc_id": "06417703f34cdebe6a9a18aee074bddebee7c0a3",
      "place_name": "Copenhagen",
      "geonameid": "2618425",
      "hit_lat": "55.67594",
      "hit_lon": "12.56553",
      "hit_country_iso2": "DK",
      "hit_admin1_name": "Capital Region",
      "hit_admin1_code": "17",
      "feature_class": "P",
      "feature_code": "PPLC",
      "candidate_reason": "by_country",
      "hit_type": "normal",
      "rank": "1",
      "ims_facility_id": "CPH",
      "unlocode": "DKCPH",
      "facility_name": "København",
      "facility_city": "Hovedstaden",
      "facility_country_iso2": "DK",
      "facility_admin1": "84",
      "facility_lat": "55.66667",
      "facility_lon": "12.58333",
      "distance_km": "1.5193348896044512",
      "name_score": "1.0",
      "admin_score": "0.0",
      "dist_score": "0.9797422014719407",
      "total_score": "0.8939226604415822"
    },
    {
      "doc_id": "06417703f34cdebe6a9a18aee074bddebee7c0a3",
      "place_name": "West Coast",
      "geonameid": "6612113",
      "hit_lat": "-42.45658",
      "hit_lon": "171.22081",
      "hit_country_iso2": "NZ",
      "hit_admin1_name": "West Coast",
      "hit_admin1_code": "G3",
      "feature_class": "A",
      "feature_code": "ADM1",
      "candidate_reason": "by_country",
      "hit_type": "normal",
      "rank": "1",
      "ims_facility_id": "GMN",
      "unlocode": "NZGMN",
      "facility_name": "Greymouth",
      "facility_city": "West Coast",
      "facility_country_iso2": "NZ",
      "facility_admin1": "WTC",
      "facility_lat": "-42.43333",
      "facility_lon": "171.2",
      "distance_km": "3.0982838175032956",
      "name_score": "1.0",
      "admin_score": "0.0",
      "dist_score": "0.9586895490999561",
      "total_score": "0.8876068647299868"
    },
    {
      "doc_id": "06417703f34cdebe6a9a18aee074bddebee7c0a3",
      "place_name": "Suez Canal",
      "geonameid": "347712",
      "hit_lat": "29.93139",
      "hit_lon": "32.56278",
      "hit_country_iso2": "EG",
      "hit_admin1_name": "Suez",
      "hit_admin1_code": "15",
      "feature_class": "H",
      "feature_code": "CNL",
      "candidate_reason": "by_country",
      "hit_type": "normal",
      "rank": "1",
      "ims_facility_id": "SUZ",
      "unlocode": "EGSUZ",
      "facility_name": "As Suways (Suez)",
      "facility_city": "As Suways",
      "facility_country_iso2": "EG",
      "facility_admin1": "SUZ",
      "facility_lat": "29.96667",
      "facility_lon": "32.51667",
      "distance_km": "5.926715153320924",
      "name_score": "0.6666666666666666",
      "admin_score": "0.0",
      "dist_score": "0.9209771312890543",
      "total_score": "0.6762931393867162"
    },
    {
      "doc_id": "06417703f34cdebe6a9a18aee074bddebee7c0a3",
      "place_name": "Suez Canal",
      "geonameid": "347712",
      "hit_lat": "29.93139",
      "hit_lon": "32.56278",
      "hit_country_iso2": "EG",
      "hit_admin1_name": "Suez",
      "hit_admin1_code": "15",
      "feature_class": "H",
      "feature_code": "CNL",
      "candidate_reason": "by_country",
      "hit_type": "normal",
      "rank": "2",
      "ims_facility_id": "PTK",
      "unlocode": "EGPTK",
      "facility_name": "Port Tewfik",
      "facility_city": "",
      "facility_country_iso2": "EG",
      "facility_admin1": "",
      "facility_lat": "29.95",
      "facility_lon": "32.55",
      "distance_km": "2.4080177706794115",
      "name_score": "0.5263157894736842",
      "admin_score": "0.0",
      "dist_score": "0.9678930963909412",
      "total_score": "0.6061574026014929"
    },
    {
      "doc_id": "06417703f34cdebe6a9a18aee074bddebee7c0a3",
      "place_name": "Red Sea",
      "geonameid": "350155",
      "hit_lat": "20.26735",
      "hit_lon": "38.53455",
      "hit_country_iso2": "",
      "hit_admin1_name": "",
      "hit_admin1_code": "",
      "feature_class": "H",
      "feature_code": "SEA",
      "candidate_reason": "by_sea_coords_600.0km",
      "hit_type": "sea",
      "rank": "1",
      "ims_facility_id": "JED",
      "unlocode": "SAJED",
      "facility_name": "Jeddah",
      "facility_city": "Makkah al Mukarramah",
      "facility_country_iso2": "SA",
      "facility_admin1": "02",
      "facility_lat": "21.46667",
      "facility_lon": "39.16667",
      "distance_km": "148.6534305144092",
      "name_score": "0.5714285714285714",
      "admin_score": "0.0",
      "dist_score": "0.7522442824759847",
      "total_score": "0.5685304275999382"
    },
    {
      "doc_id": "06417703f34cdebe6a9a18aee074bddebee7c0a3",
      "place_name": "Red Sea",
      "geonameid": "350155",
      "hit_lat": "20.26735",
      "hit_lon": "38.53455",
      "hit_country_iso2": "",
      "hit_admin1_name": "",
      "hit_admin1_code": "",
      "feature_class": "H",
      "feature_code": "SEA",
      "candidate_reason": "by_sea_coords_600.0km",
      "hit_type": "sea",
      "rank": "2",
      "ims_facility_id": "PZU",
      "unlocode": "SDPZU",
      "facility_name": "Port Sudan",
      "facility_city": "Al Baḩr al Aḩmar",
      "facility_country_iso2": "SD",
      "facility_admin1": "RS",
      "facility_lat": "19.619217",
      "facility_lon": "37.211709",
      "distance_km": "155.9254801063069",
      "name_score": "0.5",
      "admin_score": "0.0",
      "dist_score": "0.7401241998228218",
      "total_score": "0.5220372599468466"
    }
  ],
  "06fb4a0c20067a368ffb8b4ca08b49c06604b31f": [
    {
      "doc_id": "06fb4a0c20067a368ffb8b4ca08b49c06604b31f",
      "place_name": "Republic of Malta",
      "geonameid": "2562770",
      "hit_lat": "35.91667",
      "hit_lon": "14.43333",
      "hit_country_iso2": "MT",
      "hit_admin1_name": "",
      "hit_admin1_code": "00",
      "feature_class": "A",
      "feature_code": "PCLI",
      "candidate_reason": "by_country",
      "hit_type": "country",
      "rank": "7",
      "ims_facility_id": "MLA",
      "unlocode": "MTMLA",
      "facility_name": "Valletta",
      "facility_city": "Valletta",
      "facility_country_iso2": "MT",
      "facility_admin1": "60",
      "facility_lat": "35.88333",
      "facility_lon": "14.5",
      "distance_km": "7.057284308166763",
      "name_score": "0.5454545454545454",
      "admin_score": "0.0",
      "dist_score": "0.9059028758911098",
      "total_score": "0.5990435900400601"
    },
    {
      "doc_id": "06fb4a0c20067a368ffb8b4ca08b49c06604b31f",
      "place_name": "Red Sea",
      "geonameid": "350155",
      "hit_lat": "20.26735",
      "hit_lon": "38.53455",
      "hit_country_iso2": "",
      "hit_admin1_name": "",
      "hit_admin1_code": "",
      "feature_class": "H",
      "feature_code": "SEA",
      "candidate_reason": "by_sea_coords_600.0km",
      "hit_type": "sea",
      "rank": "1",
      "ims_facility_id": "JED",
      "unlocode": "SAJED",
      "facility_name": "Jeddah",
      "facility_city": "Makkah al Mukarramah",
      "facility_country_iso2": "SA",
      "facility_admin1": "02",
      "facility_lat": "21.46667",
      "facility_lon": "39.16667",
      "distance_km": "148.6534305144092",
      "name_score": "0.5714285714285714",
      "admin_score": "0.0",
      "dist_score": "0.7522442824759847",
      "total_score": "0.5685304275999382"
    },
    {
      "doc_id": "06fb4a0c20067a368ffb8b4ca08b49c06604b31f",
      "place_name": "Republic of Malta",
      "geonameid": "2562770",
      "hit_lat": "35.91667",
      "hit_lon": "14.43333",
      "hit_country_iso2": "MT",
      "hit_admin1_name": "",
      "hit_admin1_code": "00",
      "feature_class": "A",
      "feature_code": "PCLI",
      "candidate_reason": "by_country",
      "hit_type": "country",
      "rank": "4",
      "ims_facility_id": "MSX",
      "unlocode": "MTMSX",
      "facility_name": "Marsamxett",
      "facility_city": "Ghaxaq",
      "facility_country_iso2": "MT",
      "facility_admin1": "17",
      "facility_lat": "35.9",
      "facility_lon": "14.5",
      "distance_km": "6.284103238960873",
      "name_score": "0.45714285714285713",
      "admin_score": "0.0",
      "dist_score": "0.916211956813855",
      "total_score": "0.5491493013298707"
    },
    {
      "doc_id": "06fb4a0c20067a368ffb8b4ca08b49c06604b31f",
      "place_name": "Republic of Malta",
      "geonameid": "2562770",
      "hit_lat": "35.91667",
      "hit_lon": "14.43333",
      "hit_country_iso2": "MT",
      "hit_admin1_name": "",
      "hit_admin1_code": "00",
      "feature_class": "A",
      "feature_code": "PCLI",
      "candidate_reason": "by_country",
      "hit_type": "country",
      "rank": "17",
      "ims_facility_id": "DMP",
      "unlocode": "MTDMP",
      "facility_name": "Delimara",
      "facility_city": "Mqabba",
      "facility_country_iso2": "MT",
      "facility_admin1": "33",
      "facility_lat": "35.81667",
      "facility_lon": "14.55",
      "distance_km": "15.302616707380665",
      "name_score": "0.48",
      "admin_score": "0.0",
      "dist_score": "0.7959651105682578",
      "total_score": "0.5267895331704773"
    },
    {
      "doc_id": "06fb4a0c20067a368ffb8b4ca08b49c06604b31f",
      "place_name": "Red Sea",
      "geonameid": "350155",
      "hit_lat": "20.26735",
      "hit_lon": "38.53455",
      "hit_country_iso2": "",
      "hit_admin1_name": "",
      "hit_admin1_code": "",
      "feature_class": "H",
      "feature_code": "SEA",
      "candidate_reason": "by_sea_coords_600.0km",
      "hit_type": "sea",
      "rank": "2",
      "ims_facility_id": "PZU",
      "unlocode": "SDPZU",
      "facility_name": "Port Sudan",
      "facility_city": "Al Baḩr al Aḩmar",
      "facility_country_iso2": "SD",
      "facility_admin1": "RS",
      "facility_lat": "19.619217",
      "facility_lon": "37.211709",
      "distance_km": "155.9254801063069",
      "name_score": "0.5",
      "admin_score": "0.0",
      "dist_score": "0.7401241998228218",
      "total_score": "0.5220372599468466"
    }
  ],
  "09b9cf5aa91991232d6363953053d1a321b957b4": [
    {
      "doc_id": "09b9cf5aa91991232d6363953053d1a321b957b4",
      "place_name": "Istanbul",
      "geonameid": "745044",
      "hit_lat": "41.01384",
      "hit_lon": "28.94966",
      "hit_country_iso2": "TR",
      "hit_admin1_name": "Istanbul",
      "hit_admin1_code": "34",
      "feature_class": "P",
      "feature_code": "PPLA",
      "candidate_reason": "by_country",
      "hit_type": "normal",
      "rank": "1",
      "ims_facility_id": "MAD",
      "unlocode": "TRMAD",
      "facility_name": "Mardas",
      "facility_city": "Istanbul",
      "facility_country_iso2": "TR",
      "facility_admin1": "34",
      "facility_lat": "41.01667",
      "facility_lon": "28.95",
      "distance_km": "0.31597195679006806",
      "name_score": "1.0",
      "admin_score": "1.0",
      "dist_score": "0.9957870405761324",
      "total_score": "0.9987361121728396"
    },
    {
      "doc_id": "09b9cf5aa91991232d6363953053d1a321b957b4",
      "place_name": "Istanbul",
      "geonameid": "745044",
      "hit_lat": "41.01384",
      "hit_lon": "28.94966",
      "hit_country_iso2": "TR",
      "hit_admin1_name": "Istanbul",
      "hit_admin1_code": "34",
      "feature_class": "P",
      "feature_code": "PPLA",
      "candidate_reason": "by_country",
      "hit_type": "normal",
      "rank": "2",
      "ims_facility_id": "IST",
      "unlocode": "TRIST",
      "facility_name": "Istanbul",
      "facility_city": "Istanbul",
      "facility_country_iso2": "TR",
      "facility_admin1": "34",
      "facility_lat": "41.01667",
      "facility_lon": "28.96667",
      "distance_km": "1.4614281098973656",
      "name_score": "1.0",
      "admin_score": "1.0",
      "dist_score": "0.9805142918680352",
      "total_score": "0.9941542875604105"
    },
    {
      "doc_id": "09b9cf5aa91991232d6363953053d1a321b957b4",
      "place_name": "Istanbul",
      "geonameid": "745044",
      "hit_lat": "41.01384",
      "hit_lon": "28.94966",
      "hit_country_iso2": "TR",
      "hit_admin1_name": "Istanbul",
      "hit_admin1_code": "34",
      "feature_class": "P",
      "feature_code": "PPLA",
      "candidate_reason": "by_country",
      "hit_type": "normal",
      "rank": "3",
      "ims_facility_id": "GTA",
      "unlocode": "TRGTA",
      "facility_name": "Galata",
      "facility_city": "Istanbul",
      "facility_country_iso2": "TR",
      "facility_admin1": "34",
      "facility_lat": "41.0252857",
      "facility_lon": "28.9727922",
      "distance_km": "2.320774565275068",
      "name_score": "1.0",
      "admin_score": "1.0",
      "dist_score": "0.9690563391296657",
      "total_score": "0.9907169017388996"
    },
    {
      "doc_id": "09b9cf5aa91991232d6363953053d1a321b957b4",
      "place_name": "Istanbul",
      "geonameid": "745044",
      "hit_lat": "41.01384",
      "hit_lon": "28.94966",
      "hit_country_iso2": "TR",
      "hit_admin1_name": "Istanbul",
      "hit_admin1_code": "34",
      "feature_class": "P",
      "feature_code": "PPLA",
      "candidate_reason": "by_country",
      "hit_type": "normal",
      "rank": "4",
      "ims_facility_id": "HAS",
      "unlocode": "TRHAS",
      "facility_name": "Hasköy",
      "facility_city": "Istanbul",
      "facility_country_iso2": "TR",
      "facility_admin1": "34",
      "facility_lat": "41.03333",
      "facility_lon": "28.96667",
      "distance_km": "2.594791147769354",
      "name_score": "1.0",
      "admin_score": "1.0",
      "dist_score": "0.9654027846964086",
      "total_score": "0.9896208354089225"
    },
    {
      "doc_id": "09b9cf5aa91991232d6363953053d1a321b957b4",
      "place_name": "Sinop",
      "geonameid": "739600",
      "hit_lat": "42.02683",
      "hit_lon": "35.16253",
      "hit_country_iso2": "TR",
      "hit_admin1_name": "Sinop",
      "hit_admin1_code": "57",
      "feature_class": "P",
      "feature_code": "PPLA",
      "candidate_reason": "by_country",
      "hit_type": "normal",
      "rank": "1",
      "ims_facility_id": "SIC",
      "unlocode": "TRSIC",
      "facility_name": "Sinop",
      "facility_city": "Sinop",
      "facility_country_iso2": "TR",
      "facility_admin1": "57",
      "facility_lat": "42.01667",
      "facility_lon": "35.13333",
      "distance_km": "2.663545029718922",
      "name_score": "1.0",
      "admin_score": "1.0",
      "dist_score": "0.9644860662704143",
      "total_score": "0.9893458198811242"
    },
    {
      "doc_id": "09b9cf5aa91991232d6363953053d1a321b957b4",
      "place_name": "Istanbul",
      "geonameid": "745044",
      "hit_lat": "41.01384",
      "hit_lon": "28.94966",
      "hit_country_iso2": "TR",
      "hit_admin1_name": "Istanbul",
      "hit_admin1_code": "34",
      "feature_class": "P",
      "feature_code": "PPLA",
      "candidate_reason": "by_country",
      "hit_type": "normal",
      "rank": "5",
      "ims_facility_id": "KKY",
      "unlocode": "TRKKY",
      "facility_name": "Karaköy/Istambul",
      "facility_city": "Istanbul",
      "facility_country_iso2": "TR",
      "facility_admin1": "34",
      "facility_lat": "41.03333",
      "facility_lon": "28.98333",
      "distance_km": "3.5601838755795123",
      "name_score": "1.0",
      "admin_score": "1.0",
      "dist_score": "0.9525308816589398",
      "total_score": "0.9857592644976819"
    },
    {
      "doc_id": "09b9cf5aa91991232d6363953053d1a321b957b4",
      "place_name": "Istanbul",
      "geonameid": "745044",
      "hit_lat": "41.01384",
      "hit_lon": "28.94966",
      "hit_country_iso2": "TR",
      "hit_admin1_name": "Istanbul",
      "hit_admin1_code": "34",
      "feature_class": "P",
      "feature_code": "PPLA",
      "candidate_reason": "by_country",
      "hit_type": "normal",
      "rank": "6",
      "ims_facility_id": "SUT",
      "unlocode": "TRSUT",
      "facility_name": "Sutluce",
      "facility_city": "Istanbul",
      "facility_country_iso2": "TR",
      "facility_admin1": "34",
      "facility_lat": "41.0510201",
      "facility_lon": "28.944692",
      "distance_km": "4.155186406106986",
      "name_score": "1.0",
      "admin_score": "1.0",
      "dist_score": "0.9445975145852402",
      "total_score": "0.983379254375572"
    },
    {
      "doc_id": "09b9cf5aa91991232d6363953053d1a321b957b4",
      "place_name": "Istanbul",
      "geonameid": "745044",
      "hit_lat": "41.01384",
      "hit_lon": "28.94966",
      "hit_country_iso2": "TR",
      "hit_admin1_name": "Istanbul",
      "hit_admin1_code": "34",
      "feature_class": "P",
      "feature_code": "PPLA",
      "candidate_reason": "by_country",
      "hit_type": "normal",
      "rank": "7",
      "ims_facility_id": "ZEY",
      "unlocode": "TRZEY",
      "facility_name": "Zeytinburnu",
      "facility_city": "Istanbul",
      "facility_country_iso2": "TR",
      "facility_admin1": "34",
      "facility_lat": "40.9898653",
      "facility_lon": "28.9037467",
      "distance_km": "4.685286115954688",
      "name_score": "1.0",
      "admin_score": "1.0",
      "dist_score": "0.9375295184539375",
      "total_score": "0.9812588555361812"
    },
    {
      "doc_id": "09b9cf5aa91991232d6363953053d1a321b957b4",
      "place_name": "Istanbul",
      "geonameid": "745044",
      "hit_lat": "41.01384",
      "hit_lon": "28.94966",
      "hit_country_iso2": "TR",
      "hit_admin1_name": "Istanbul",
      "hit_admin1_code": "34",
      "feature_class": "P",
      "feature_code": "PPLA",
      "candidate_reason": "by_country",
      "hit_type": "normal",
      "rank": "8",
      "ims_facility_id": "HAY",
      "unlocode": "TRHAY",
      "facility_name": "Haydarpasa",
      "facility_city": "Istanbul",
      "facility_country_iso2": "TR",
      "facility_admin1": "34",
      "facility_lat": "40.9975593",
      "facility_lon": "29.0213686",
      "distance_km": "6.283682947068197",
      "name_score": "1.0",
      "admin_score": "1.0",
      "dist_score": "0.9162175607057573",
      "total_score": "0.9748652682117271"
    },
    {
      "doc_id": "09b9cf5aa91991232d6363953053d1a321b957b4",
      "place_name": "Istanbul",
      "geonameid": "745044",
      "hit_lat": "41.01384",
      "hit_lon": "28.94966",
      "hit_country_iso2": "TR",
      "hit_admin1_name": "Istanbul",
      "hit_admin1_code": "34",
      "feature_class": "P",
      "feature_code": "PPLA",
      "candidate_reason": "by_country",
      "hit_type": "normal",
      "rank": "9",
      "ims_facility_id": "BTS",
      "unlocode": "TRBTS",
      "facility_name": "Besiktas",
      "facility_city": "Istanbul",
      "facility_country_iso2": "TR",
      "facility_admin1": "34",
      "facility_lat": "41.05",
      "facility_lon": "29.01667",
      "distance_km": "6.910838553101807",
      "name_score": "1.0",
      "admin_score": "1.0",
      "dist_score": "0.9078554859586425",
      "total_score": "0.9723566457875926"
    },
    {
      "doc_id": "09b9cf5aa91991232d6363953053d1a321b957b4",
      "place_name": "Istanbul",
      "geonameid": "745044",
      "hit_lat": "41.01384",
      "hit_lon": "28.94966",
      "hit_country_iso2": "TR",
      "hit_admin1_name": "Istanbul",
      "hit_admin1_code": "34",
      "feature_class": "P",
      "feature_code": "PPLA",
      "candidate_reason": "by_country",
      "hit_type": "normal",
      "rank": "10",
      "ims_facility_id": "USK",
      "unlocode": "TRUSK",
      "facility_name": "Üsküdar",
      "facility_city": "Istanbul",
      "facility_country_iso2": "TR",
      "facility_admin1": "34",
      "facility_lat": "41.01667",
      "facility_lon": "29.05",
      "distance_km": "8.424449987746042",
      "name_score": "1.0",
      "admin_score": "1.0",
      "dist_score": "0.887674000163386",
      "total_score": "0.9663022000490157"
    },
    {
      "doc_id": "09b9cf5aa91991232d6363953053d1a321b957b4",
      "place_name": "Istanbul",
      "geonameid": "745044",
      "hit_lat": "41.01384",
      "hit_lon": "28.94966",
      "hit_country_iso2": "TR",
      "hit_admin1_name": "Istanbul",
      "hit_admin1_code": "34",
      "feature_class": "P",
      "feature_code": "PPLA",
      "candidate_reason": "by_country",
      "hit_type": "normal",
      "rank": "11",
      "ims_facility_id": "BBI",
      "unlocode": "TRBBI",
      "facility_name": "Beylerbeyi",
      "facility_city": "Istanbul",
      "facility_country_iso2": "TR",
      "facility_admin1": "34",
      "facility_lat": "41.05",
      "facility_lon": "29.05",
      "distance_km": "9.327559559273737",
      "name_score": "1.0",
      "admin_score": "1.0",
      "dist_score": "0.8756325392096835",
      "total_score": "0.962689761762905"
    },
    {
      "doc_id": "09b9cf5aa91991232d6363953053d1a321b957b4",
      "place_name": "Istanbul",
      "geonameid": "745044",
      "hit_lat": "41.01384",
      "hit_lon": "28.94966",
      "hit_country_iso2": "TR",
      "hit_admin1_name": "Istanbul",
      "hit_admin1_code": "34",
      "feature_class": "P",
      "feature_code": "PPLA",
      "candidate_reason": "by_country",
      "hit_type": "normal",
      "rank": "12",
      "ims_facility_id": "KMX",
      "unlocode": "TRKMX",
      "facility_name": "Kumport",
      "facility_city": "Istanbul",
      "facility_country_iso2": "TR",
      "facility_admin1": "34",
      "facility_lat": "40.95",
      "facility_lon": "28.81667",
      "distance_km": "13.229377861697365",
      "name_score": "1.0",
      "admin_score": "1.0",
      "dist_score": "0.8236082951773684",
      "total_score": "0.9470824885532104"
    },
    {
      "doc_id": "09b9cf5aa91991232d6363953053d1a321b957b4",
      "place_name": "Istanbul",
      "geonameid": "745044",
      "hit_lat": "41.01384",
      "hit_lon": "28.94966",
      "hit_country_iso2": "TR",
      "hit_admin1_name": "Istanbul",
      "hit_admin1_code": "34",
      "feature_class": "P",
      "feature_code": "PPLA",
      "candidate_reason": "by_country",
      "hit_type": "normal",
      "rank": "13",
      "ims_facility_id": "CUB",
      "unlocode": "TRCUB",
      "facility_name": "Cubuklu",
      "facility_city": "Istanbul",
      "facility_country_iso2": "TR",
      "facility_admin1": "34",
      "facility_lat": "41.105633",
      "facility_lon": "29.08403",
      "distance_km": "15.20216271977254",
      "name_score": "1.0",
      "admin_score": "1.0",
      "dist_score": "0.7973044970696994",
      "total_score": "0.9391913491209097"
    },
    {
      "doc_id": "09b9cf5aa91991232d6363953053d1a321b957b4",
      "place_name": "Istanbul",
      "geonameid": "745044",
      "hit_lat": "41.01384",
      "hit_lon": "28.94966",
      "hit_country_iso2": "TR",
      "hit_admin1_name": "Istanbul",
      "hit_admin1_code": "34",
      "feature_class": "P",
      "feature_code": "PPLA",
      "candidate_reason": "by_country",
      "hit_type": "normal",
      "rank": "14",
      "ims_facility_id": "BEY",
      "unlocode": "TRBEY",
      "facility_name": "Beykoz",
      "facility_city": "Istanbul",
      "facility_country_iso2": "TR",
      "facility_admin1": "34",
      "facility_lat": "41.1343001",
      "facility_lon": "29.0920378",
      "distance_km": "17.94032942102146",
      "name_score": "1.0",
      "admin_score": "1.0",
      "dist_score": "0.7607956077197139",
      "total_score": "0.9282386823159141"
    },
    {
      "doc_id": "09b9cf5aa91991232d6363953053d1a321b957b4",
      "place_name": "Istanbul",
      "geonameid": "745044",
      "hit_lat": "41.01384",
      "hit_lon": "28.94966",
      "hit_country_iso2": "TR",
      "hit_admin1_name": "Istanbul",
      "hit_admin1_code": "34",
      "feature_class": "P",
      "feature_code": "PPLA",
      "candidate_reason": "by_country",
      "hit_type": "normal",
      "rank": "15",
      "ims_facility_id": "MAL",
      "unlocode": "TRMAL",
      "facility_name": "Maltepe",
      "facility_city": "Istanbul",
      "facility_country_iso2": "TR",
      "facility_admin1": "34",
      "facility_lat": "40.9247539",
      "facility_lon": "29.1310782",
      "distance_km": "18.169513486499838",
      "name_score": "1.0",
      "admin_score": "1.0",
      "dist_score": "0.7577398201800022",
      "total_score": "0.9273219460540006"
    },
    {
      "doc_id": "09b9cf5aa91991232d6363953053d1a321b957b4",
      "place_name": "Istanbul",
      "geonameid": "745044",
      "hit_lat": "41.01384",
      "hit_lon": "28.94966",
      "hit_country_iso2": "TR",
      "hit_admin1_name": "Istanbul",
      "hit_admin1_code": "34",
      "feature_class": "P",
      "feature_code": "PPLA",
      "candidate_reason": "by_country",
      "hit_type": "normal",
      "rank": "16",
      "ims_facility_id": "FRZ",
      "unlocode": "TRFRZ",
      "facility_name": "Firuzköy",
      "facility_city": "Istanbul",
      "facility_country_iso2": "TR",
      "facility_admin1": "34",
      "facility_lat": "41.0",
      "facility_lon": "28.7",
      "distance_km": "21.005678609141018",
      "name_score": "1.0",
      "admin_score": "1.0",
      "dist_score": "0.7199242852114531",
      "total_score": "0.9159772855634359"
    },
    {
      "doc_id": "09b9cf5aa91991232d6363953053d1a321b957b4",
      "place_name": "Istanbul",
      "geonameid": "745044",
      "hit_lat": "41.01384",
      "hit_lon": "28.94966",
      "hit_country_iso2": "TR",
      "hit_admin1_name": "Istanbul",
      "hit_admin1_code": "34",
      "feature_class": "P",
      "feature_code": "PPLA",
      "candidate_reason": "by_country",
      "hit_type": "normal",
      "rank": "17",
      "ims_facility_id": "HAR",
      "unlocode": "TRHAR",
      "facility_name": "Haramidere",
      "facility_city": "Istanbul",
      "facility_country_iso2": "TR",
      "facility_admin1": "34",
      "facility_lat": "41.0058649",
      "facility_lon": "28.6779302",
      "distance_km": "22.817351911597846",
      "name_score": "1.0",
      "admin_score": "1.0",
      "dist_score": "0.6957686411786954",
      "total_score": "0.9087305923536085"
    },
    {
      "doc_id": "09b9cf5aa91991232d6363953053d1a321b957b4",
      "place_name": "Istanbul",
      "geonameid": "745044",
      "hit_lat": "41.01384",
      "hit_lon": "28.94966",
      "hit_country_iso2": "TR",
      "hit_admin1_name": "Istanbul",
      "hit_admin1_code": "34",
      "feature_class": "P",
      "feature_code": "PPLA",
      "candidate_reason": "by_country",
      "hit_type": "normal",
      "rank": "18",
      "ims_facility_id": "MPT",
      "unlocode": "TRMPT",
      "facility_name": "Marport",
      "facility_city": "Istanbul",
      "facility_country_iso2": "TR",
      "facility_admin1": "34",
      "facility_lat": "40.96540315",
      "facility_lon": "28.673306926028463",
      "distance_km": "23.81225505028535",
      "name_score": "1.0",
      "admin_score": "1.0",
      "dist_score": "0.6825032659961954",
      "total_score": "0.9047509797988585"
    },
    {
      "doc_id": "09b9cf5aa91991232d6363953053d1a321b957b4",
      "place_name": "Istanbul",
      "geonameid": "745044",
      "hit_lat": "41.01384",
      "hit_lon": "28.94966",
      "hit_country_iso2": "TR",
      "hit_admin1_name": "Istanbul",
      "hit_admin1_code": "34",
      "feature_class": "P",
      "feature_code": "PPLA",
      "candidate_reason": "by_country",
      "hit_type": "normal",
      "rank": "19",
      "ims_facility_id": "KAR",
      "unlocode": "TRKAR",
      "facility_name": "Kartal",
      "facility_city": "Istanbul",
      "facility_country_iso2": "TR",
      "facility_admin1": "34",
      "facility_lat": "40.88858",
      "facility_lon": "29.1856536",
      "distance_km": "24.223895022480257",
      "name_score": "1.0",
      "admin_score": "1.0",
      "dist_score": "0.6770147330335966",
      "total_score": "0.903104419910079"
    },
    {
      "doc_id": "09b9cf5aa91991232d6363953053d1a321b957b4",
      "place_name": "Moscow",
      "geonameid": "524901",
      "hit_lat": "55.75204",
      "hit_lon": "37.61781",
      "hit_country_iso2": "RU",
      "hit_admin1_name": "Moscow",
      "hit_admin1_code": "48",
      "feature_class": "P",
      "feature_code": "PPLC",
      "candidate_reason": "by_country",
      "hit_type": "normal",
      "rank": "1",
      "ims_facility_id": "MOW",
      "unlocode": "RUMOW",
      "facility_name": "Moskva",
      "facility_city": "Moskva",
      "facility_country_iso2": "RU",
      "facility_admin1": "MOW",
      "facility_lat": "55.75",
      "facility_lon": "37.6",
      "distance_km": "1.137388851143242",
      "name_score": "1.0",
      "admin_score": "0.0",
      "dist_score": "0.9848348153180901",
      "total_score": "0.895450444595427"
    },
    {
      "doc_id": "09b9cf5aa91991232d6363953053d1a321b957b4",
      "place_name": "Mersin",
      "geonameid": "304531",
      "hit_lat": "36.81196",
      "hit_lon": "34.63886",
      "hit_country_iso2": "TR",
      "hit_admin1_name": "Mersin",
      "hit_admin1_code": "32",
      "feature_class": "P",
      "feature_code": "PPLA",
      "candidate_reason": "by_country",
      "hit_type": "normal",
      "rank": "1",
      "ims_facility_id": "MFZ",
      "unlocode": "TRMFZ",
      "facility_name": "Mersin-Free Zone",
      "facility_city": "Mersin",
      "facility_country_iso2": "TR",
      "facility_admin1": "33",
      "facility_lat": "36.8",
      "facility_lon": "34.63333",
      "distance_km": "1.4180998814534531",
      "name_score": "1.0",
      "admin_score": "0.0",
      "dist_score": "0.9810920015806206",
      "total_score": "0.8943276004741861"
    },
    {
      "doc_id": "09b9cf5aa91991232d6363953053d1a321b957b4",
      "place_name": "Istanbul",
      "geonameid": "745044",
      "hit_lat": "41.01384",
      "hit_lon": "28.94966",
      "hit_country_iso2": "TR",
      "hit_admin1_name": "Istanbul",
      "hit_admin1_code": "34",
      "feature_class": "P",
      "feature_code": "PPLA",
      "candidate_reason": "by_country",
      "hit_type": "normal",
      "rank": "20",
      "ims_facility_id": "9AK",
      "unlocode": "TR9AK",
      "facility_name": "Pasaköy",
      "facility_city": "Istanbul",
      "facility_country_iso2": "TR",
      "facility_admin1": "34",
      "facility_lat": "41.01667",
      "facility_lon": "29.26667",
      "distance_km": "26.59912864621802",
      "name_score": "1.0",
      "admin_score": "1.0",
      "dist_score": "0.6453449513837597",
      "total_score": "0.8936034854151279"
    },
    {
      "doc_id": "09b9cf5aa91991232d6363953053d1a321b957b4",
      "place_name": "Istanbul",
      "geonameid": "745044",
      "hit_lat": "41.01384",
      "hit_lon": "28.94966",
      "hit_country_iso2": "TR",
      "hit_admin1_name": "Istanbul",
      "hit_admin1_code": "34",
      "feature_class": "P",
      "feature_code": "PPLA",
      "candidate_reason": "by_country",
      "hit_type": "normal",
      "rank": "21",
      "ims_facility_id": "PEN",
      "unlocode": "TRPEN",
      "facility_name": "Pendik",
      "facility_city": "Istanbul",
      "facility_country_iso2": "TR",
      "facility_admin1": "34",
      "facility_lat": "40.8768715",
      "facility_lon": "29.2349672",
      "distance_km": "28.393180282231654",
      "name_score": "1.0",
      "admin_score": "1.0",
      "dist_score": "0.621424262903578",
      "total_score": "0.8864272788710733"
    },
    {
      "doc_id": "09b9cf5aa91991232d6363953053d1a321b957b4",
      "place_name": "Istanbul",
      "geonameid": "745044",
      "hit_lat": "41.01384",
      "hit_lon": "28.94966",
      "hit_country_iso2": "TR",
      "hit_admin1_name": "Istanbul",
      "hit_admin1_code": "34",
      "feature_class": "P",
      "feature_code": "PPLA",
      "candidate_reason": "by_country",
      "hit_type": "normal",
      "rank": "22",
      "ims_facility_id": "TUZ",
      "unlocode": "TRTUZ",
      "facility_name": "Tuzla",
      "facility_city": "Istanbul",
      "facility_country_iso2": "TR",
      "facility_admin1": "34",
      "facility_lat": "40.83333",
      "facility_lon": "29.25",
      "distance_km": "32.24304569602503",
      "name_score": "1.0",
      "admin_score": "1.0",
      "dist_score": "0.5700927240529996",
      "total_score": "0.8710278172158998"
    },
    {
      "doc_id": "09b9cf5aa91991232d6363953053d1a321b957b4",
      "place_name": "Istanbul",
      "geonameid": "745044",
      "hit_lat": "41.01384",
      "hit_lon": "28.94966",
      "hit_country_iso2": "TR",
      "hit_admin1_name": "Istanbul",
      "hit_admin1_code": "34",
      "feature_class": "P",
      "feature_code": "PPLA",
      "candidate_reason": "by_country",
      "hit_type": "normal",
      "rank": "23",
      "ims_facility_id": "MIM",
      "unlocode": "TRMIM",
      "facility_name": "Mimarsinan",
      "facility_city": "Istanbul",
      "facility_country_iso2": "TR",
      "facility_admin1": "34",
      "facility_lat": "41.01667",
      "facility_lon": "28.55",
      "distance_km": "33.53310126391056",
      "name_score": "1.0",
      "admin_score": "1.0",
      "dist_score": "0.5528919831478591",
      "total_score": "0.8658675949443577"
    },
    {
      "doc_id": "09b9cf5aa91991232d6363953053d1a321b957b4",
      "place_name": "Mersin",
      "geonameid": "304531",
      "hit_lat": "36.81196",
      "hit_lon": "34.63886",
      "hit_country_iso2": "TR",
      "hit_admin1_name": "Mersin",
      "hit_admin1_code": "32",
      "feature_class": "P",
      "feature_code": "PPLA",
      "candidate_reason": "by_country",
      "hit_type": "normal",
      "rank": "2",
      "ims_facility_id": "MER",
      "unlocode": "TRMER",
      "facility_name": "Mersin",
      "facility_city": "Mersin",
      "facility_country_iso2": "TR",
      "facility_admin1": "33",
      "facility_lat": "36.71667",
      "facility_lon": "34.63333",
      "distance_km": "10.60720917767038",
      "name_score": "1.0",
      "admin_score": "0.0",
      "dist_score": "0.8585705442977283",
      "total_score": "0.8575711632893184"
    },
    {
      "doc_id": "09b9cf5aa91991232d6363953053d1a321b957b4",
      "place_name": "Sinop",
      "geonameid": "739600",
      "hit_lat": "42.02683",
      "hit_lon": "35.16253",
      "hit_country_iso2": "TR",
      "hit_admin1_name": "Sinop",
      "hit_admin1_code": "57",
      "feature_class": "P",
      "feature_code": "PPLA",
      "candidate_reason": "by_country",
      "hit_type": "normal",
      "rank": "2",
      "ims_facility_id": "AYA",
      "unlocode": "TRAYA",
      "facility_name": "Ayancik",
      "facility_city": "Sinop",
      "facility_country_iso2": "TR",
      "facility_admin1": "57",
      "facility_lat": "41.93333",
      "facility_lon": "34.58333",
      "distance_km": "48.99230459285557",
      "name_score": "1.0",
      "admin_score": "1.0",
      "dist_score": "0.3467692720952591",
      "total_score": "0.8040307816285777"
    },
    {
      "doc_id": "09b9cf5aa91991232d6363953053d1a321b957b4",
      "place_name": "Istanbul",
      "geonameid": "745044",
      "hit_lat": "41.01384",
      "hit_lon": "28.94966",
      "hit_country_iso2": "TR",
      "hit_admin1_name": "Istanbul",
      "hit_admin1_code": "34",
      "feature_class": "P",
      "feature_code": "PPLA",
      "candidate_reason": "by_country",
      "hit_type": "normal",
      "rank": "24",
      "ims_facility_id": "SER",
      "unlocode": "TRSER",
      "facility_name": "Serviburun",
      "facility_city": "Istanbul",
      "facility_country_iso2": "TR",
      "facility_admin1": "34",
      "facility_lat": "",
      "facility_lon": "",
      "distance_km": "",
      "name_score": "1.0",
      "admin_score": "1.0",
      "dist_score": "0.0",
      "total_score": "0.7"
    }
  ],
  "0a53d6ea0d406e3da6d1a6e2deaee4dd1df6985c": [
    {
      "doc_id": "0a53d6ea0d406e3da6d1a6e2deaee4dd1df6985c",
      "place_name": "Bushehr",
      "geonameid": "139817",
      "hit_lat": "28.96887",
      "hit_lon": "50.83657",
      "hit_country_iso2": "IR",
      "hit_admin1_name": "Bushehr",
      "hit_admin1_code": "22",
      "feature_class": "P",
      "feature_code": "PPLA",
      "candidate_reason": "by_country",
      "hit_type": "normal",
      "rank": "1",
      "ims_facility_id": "BUZ",
      "unlocode": "IRBUZ",
      "facility_name": "Bushehr",
      "facility_city": "Bushehr",
      "facility_country_iso2": "IR",
      "facility_admin1": "18",
      "facility_lat": "28.96667",
      "facility_lon": "50.83333",
      "distance_km": "0.39899067460394916",
      "name_score": "1.0",
      "admin_score": "0.0",
      "dist_score": "0.994680124338614",
      "total_score": "0.8984040373015841"
    },
    {
      "doc_id": "0a53d6ea0d406e3da6d1a6e2deaee4dd1df6985c",
      "place_name": "Persian Gulf",
      "geonameid": "235616",
      "hit_lat": "27.0",
      "hit_lon": "51.0",
      "hit_country_iso2": "",
      "hit_admin1_name": "",
      "hit_admin1_code": "00",
      "feature_class": "H",
      "feature_code": "GULF",
      "candidate_reason": "by_sea_coords_600.0km",
      "hit_type": "sea",
      "rank": "3",
      "ims_facility_id": "RTA",
      "unlocode": "SARTA",
      "facility_name": "Ras Tanura",
      "facility_city": "",
      "facility_country_iso2": "SA",
      "facility_admin1": "",
      "facility_lat": "26.63333",
      "facility_lon": "50.15",
      "distance_km": "93.68755997211558",
      "name_score": "0.47619047619047616",
      "admin_score": "0.0",
      "dist_score": "0.8438540667131407",
      "total_score": "0.5388705057282279"
    },
    {
      "doc_id": "0a53d6ea0d406e3da6d1a6e2deaee4dd1df6985c",
      "place_name": "Persian Gulf",
      "geonameid": "235616",
      "hit_lat": "27.0",
      "hit_lon": "51.0",
      "hit_country_iso2": "",
      "hit_admin1_name": "",
      "hit_admin1_code": "00",
      "feature_class": "H",
      "feature_code": "GULF",
      "candidate_reason": "by_sea_coords_600.0km",
      "hit_type": "sea",
      "rank": "12",
      "ims_facility_id": "JBI",
      "unlocode": "SAJBI",
      "facility_name": "Al Jubayl Industrial City",
      "facility_city": "",
      "facility_country_iso2": "SA",
      "facility_admin1": "",
      "facility_lat": "27.08333",
      "facility_lon": "49.7",
      "distance_km": "129.082672079191",
      "name_score": "0.5",
      "admin_score": "0.0",
      "dist_score": "0.7848622132013483",
      "total_score": "0.5354586639604044"
    }
  ],
  "111302fe966c8ccfaebeefed65b15d6541e60bbf": [
    {
      "doc_id": "111302fe966c8ccfaebeefed65b15d6541e60bbf",
      "place_name": "Shanghai",
      "geonameid": "1796236",
      "hit_lat": "31.22222",
      "hit_lon": "121.45806",
      "hit_country_iso2": "CN",
      "hit_admin1_name": "Shanghai",
      "hit_admin1_code": "23",
      "feature_class": "P",
      "feature_code": "PPLA",
      "candidate_reason": "by_country",
      "hit_type": "normal",
      "rank": "1",
      "ims_facility_id": "SGH",
      "unlocode": "CNSGH",
      "facility_name": "Shanghai",
      "facility_city": "Shanghai",
      "facility_country_iso2": "CN",
      "facility_admin1": "SH",
      "facility_lat": "31.23333",
      "facility_lon": "121.48333",
      "distance_km": "2.701758236295103",
      "name_score": "1.0",
      "admin_score": "1.0",
      "dist_score": "0.9639765568493986",
      "total_score": "0.9891929670548195"
    },
    {
      "doc_id": "111302fe966c8ccfaebeefed65b15d6541e60bbf",
      "place_name": "Shanghai",
      "geonameid": "1796236",
      "hit_lat": "31.22222",
      "hit_lon": "121.45806",
      "hit_country_iso2": "CN",
      "hit_admin1_name": "Shanghai",
      "hit_admin1_code": "23",
      "feature_class": "P",
      "feature_code": "PPLA",
      "candidate_reason": "by_country",
      "hit_type": "normal",
      "rank": "2",
      "ims_facility_id": "PDG",
      "unlocode": "CNPDG",
      "facility_name": "Pudong/Shanghai",
      "facility_city": "Shanghai",
      "facility_country_iso2": "CN",
      "facility_admin1": "SH",
      "facility_lat": "31.23333",
      "facility_lon": "121.5",
      "distance_km": "4.174800843072971",
      "name_score": "1.0",
      "admin_score": "1.0",
      "dist_score": "0.944335988759027",
      "total_score": "0.983300796627708"
    },
    {
      "doc_id": "111302fe966c8ccfaebeefed65b15d6541e60bbf",
      "place_name": "Shanghai",
      "geonameid": "1796236",
      "hit_lat": "31.22222",
      "hit_lon": "121.45806",
      "hit_country_iso2": "CN",
      "hit_admin1_name": "Shanghai",
      "hit_admin1_code": "23",
      "feature_class": "P",
      "feature_code": "PPLA",
      "candidate_reason": "by_country",
      "hit_type": "normal",
      "rank": "3",
      "ims_facility_id": "LGW",
      "unlocode": "CNLGW",
      "facility_name": "Longwu",
      "facility_city": "Shanghai",
      "facility_country_iso2": "CN",
      "facility_admin1": "SH",
      "facility_lat": "31.095650499999998",
      "facility_lon": "121.45841768444028",
      "distance_km": "14.073927421167744",
      "name_score": "1.0",
      "admin_score": "1.0",
      "dist_score": "0.81234763438443",
      "total_score": "0.943704290315329"
    },
    {
      "doc_id": "111302fe966c8ccfaebeefed65b15d6541e60bbf",
      "place_name": "Shanghai",
      "geonameid": "1796236",
      "hit_lat": "31.22222",
      "hit_lon": "121.45806",
      "hit_country_iso2": "CN",
      "hit_admin1_name": "Shanghai",
      "hit_admin1_code": "23",
      "feature_class": "P",
      "feature_code": "PPLA",
      "candidate_reason": "by_country",
      "hit_type": "normal",
      "rank": "4",
      "ims_facility_id": "MHG",
      "unlocode": "CNMHG",
      "facility_name": "Minxing",
      "facility_city": "Shanghai",
      "facility_country_iso2": "CN",
      "facility_admin1": "SH",
      "facility_lat": "31.1147666",
      "facility_lon": "121.3769429",
      "distance_km": "14.224116477382315",
      "name_score": "1.0",
      "admin_score": "1.0",
      "dist_score": "0.8103451136349025",
      "total_score": "0.9431035340904707"
    },
    {
      "doc_id": "111302fe966c8ccfaebeefed65b15d6541e60bbf",
      "place_name": "Shanghai",
      "geonameid": "1796236",
      "hit_lat": "31.22222",
      "hit_lon": "121.45806",
      "hit_country_iso2": "CN",
      "hit_admin1_name": "Shanghai",
      "hit_admin1_code": "23",
      "feature_class": "P",
      "feature_code": "PPLA",
      "candidate_reason": "by_country",
      "hit_type": "normal",
      "rank": "5",
      "ims_facility_id": "WGQ",
      "unlocode": "CNWGQ",
      "facility_name": "Waigaoqiao Pt",
      "facility_city": "Shanghai",
      "facility_country_iso2": "CN",
      "facility_admin1": "SH",
      "facility_lat": "31.362981650000002",
      "facility_lon": "121.5882223293982",
      "distance_km": "19.948658563635444",
      "name_score": "1.0",
      "admin_score": "1.0",
      "dist_score": "0.734017885818194",
      "total_score": "0.9202053657454582"
    },
    {
      "doc_id": "111302fe966c8ccfaebeefed65b15d6541e60bbf",
      "place_name": "Shanghai",
      "geonameid": "1796236",
      "hit_lat": "31.22222",
      "hit_lon": "121.45806",
      "hit_country_iso2": "CN",
      "hit_admin1_name": "Shanghai",
      "hit_admin1_code": "23",
      "feature_class": "P",
      "feature_code": "PPLA",
      "candidate_reason": "by_country",
      "hit_type": "normal",
      "rank": "6",
      "ims_facility_id": "BSD",
      "unlocode": "CNBSD",
      "facility_name": "Baoshan Pt",
      "facility_city": "Shanghai",
      "facility_country_iso2": "CN",
      "facility_admin1": "SH",
      "facility_lat": "31.41667",
      "facility_lon": "121.48333",
      "distance_km": "21.754693086575664",
      "name_score": "1.0",
      "admin_score": "1.0",
      "dist_score": "0.7099374255123245",
      "total_score": "0.9129812276536973"
    },
    {
      "doc_id": "111302fe966c8ccfaebeefed65b15d6541e60bbf",
      "place_name": "Singapore",
      "geonameid": "1880252",
      "hit_lat": "1.28967",
      "hit_lon": "103.85007",
      "hit_country_iso2": "SG",
      "hit_admin1_name": "",
      "hit_admin1_code": "",
      "feature_class": "P",
      "feature_code": "PPLC",
      "candidate_reason": "by_country",
      "hit_type": "normal",
      "rank": "1",
      "ims_facility_id": "SIN",
      "unlocode": "SGSIN",
      "facility_name": "Singapore",
      "facility_city": "",
      "facility_country_iso2": "SG",
      "facility_admin1": "",
      "facility_lat": "1.28333",
      "facility_lon": "103.85",
      "distance_km": "0.7050187816064034",
      "name_score": "1.0",
      "admin_score": "0.0",
      "dist_score": "0.9905997495785813",
      "total_score": "0.8971799248735743"
    },
    {
      "doc_id": "111302fe966c8ccfaebeefed65b15d6541e60bbf",
      "place_name": "Moscow",
      "geonameid": "524901",
      "hit_lat": "55.75204",
      "hit_lon": "37.61781",
      "hit_country_iso2": "RU",
      "hit_admin1_name": "Moscow",
      "hit_admin1_code": "48",
      "feature_class": "P",
      "feature_code": "PPLC",
      "candidate_reason": "by_country",
      "hit_type": "normal",
      "rank": "1",
      "ims_facility_id": "MOW",
      "unlocode": "RUMOW",
      "facility_name": "Moskva",
      "facility_city": "Moskva",
      "facility_country_iso2": "RU",
      "facility_admin1": "MOW",
      "facility_lat": "55.75",
      "facility_lon": "37.6",
      "distance_km": "1.137388851143242",
      "name_score": "1.0",
      "admin_score": "0.0",
      "dist_score": "0.9848348153180901",
      "total_score": "0.895450444595427"
    },
    {
      "doc_id": "111302fe966c8ccfaebeefed65b15d6541e60bbf",
      "place_name": "Hong Kong",
      "geonameid": "1819729",
      "hit_lat": "22.27832",
      "hit_lon": "114.17469",
      "hit_country_iso2": "HK",
      "hit_admin1_name": "",
      "hit_admin1_code": "",
      "feature_class": "P",
      "feature_code": "PPLC",
      "candidate_reason": "by_country",
      "hit_type": "normal",
      "rank": "1",
      "ims_facility_id": "HKG",
      "unlocode": "HKHKG",
      "facility_name": "Hong Kong",
      "facility_city": "",
      "facility_country_iso2": "HK",
      "facility_admin1": "",
      "facility_lat": "22.31667",
      "facility_lon": "114.16667",
      "distance_km": "4.343416130297495",
      "name_score": "1.0",
      "admin_score": "0.0",
      "dist_score": "0.9420877849293667",
      "total_score": "0.88262633547881"
    },
    {
      "doc_id": "111302fe966c8ccfaebeefed65b15d6541e60bbf",
      "place_name": "Shanghai",
      "geonameid": "1796236",
      "hit_lat": "31.22222",
      "hit_lon": "121.45806",
      "hit_country_iso2": "CN",
      "hit_admin1_name": "Shanghai",
      "hit_admin1_code": "23",
      "feature_class": "P",
      "feature_code": "PPLA",
      "candidate_reason": "by_country",
      "hit_type": "normal",
      "rank": "7",
      "ims_facility_id": "ANT",
      "unlocode": "CNANT",
      "facility_name": "Anting",
      "facility_city": "Shanghai",
      "facility_country_iso2": "CN",
      "facility_admin1": "SH",
      "facility_lat": "31.3",
      "facility_lon": "121.15",
      "distance_km": "30.531869801460136",
      "name_score": "1.0",
      "admin_score": "1.0",
      "dist_score": "0.5929084026471982",
      "total_score": "0.8778725207941594"
    },
    {
      "doc_id": "111302fe966c8ccfaebeefed65b15d6541e60bbf",
      "place_name": "Shanghai",
      "geonameid": "1796236",
      "hit_lat": "31.22222",
      "hit_lon": "121.45806",
      "hit_country_iso2": "CN",
      "hit_admin1_name": "Shanghai",
      "hit_admin1_code": "23",
      "feature_class": "P",
      "feature_code": "PPLA",
      "candidate_reason": "by_country",
      "hit_type": "normal",
      "rank": "8",
      "ims_facility_id": "SGJ",
      "unlocode": "CNSGJ",
      "facility_name": "Songjiang",
      "facility_city": "Shanghai",
      "facility_country_iso2": "CN",
      "facility_admin1": "SH",
      "facility_lat": "31.01667",
      "facility_lon": "121.23333",
      "distance_km": "31.30575114412081",
      "name_score": "1.0",
      "admin_score": "1.0",
      "dist_score": "0.582589984745056",
      "total_score": "0.8747769954235167"
    },
    {
      "doc_id": "111302fe966c8ccfaebeefed65b15d6541e60bbf",
      "place_name": "Shanghai",
      "geonameid": "1796236",
      "hit_lat": "31.22222",
      "hit_lon": "121.45806",
      "hit_country_iso2": "CN",
      "hit_admin1_name": "Shanghai",
      "hit_admin1_code": "23",
      "feature_class": "P",
      "feature_code": "PPLA",
      "candidate_reason": "by_country",
      "hit_type": "normal",
      "rank": "9",
      "ims_facility_id": "WIG",
      "unlocode": "CNWIG",
      "facility_name": "Waigang",
      "facility_city": "Shanghai",
      "facility_country_iso2": "CN",
      "facility_admin1": "SH",
      "facility_lat": "31.365291",
      "facility_lon": "121.1583417",
      "distance_km": "32.62079705926003",
      "name_score": "1.0",
      "admin_score": "1.0",
      "dist_score": "0.5650560392098662",
      "total_score": "0.8695168117629598"
    },
    {
      "doc_id": "111302fe966c8ccfaebeefed65b15d6541e60bbf",
      "place_name": "Republic of Singapore",
      "geonameid": "1880251",
      "hit_lat": "1.36667",
      "hit_lon": "103.8",
      "hit_country_iso2": "SG",
      "hit_admin1_name": "",
      "hit_admin1_code": "00",
      "feature_class": "A",
      "feature_code": "PCLI",
      "candidate_reason": "by_country",
      "hit_type": "country",
      "rank": "5",
      "ims_facility_id": "SIN",
      "unlocode": "SGSIN",
      "facility_name": "Singapore",
      "facility_city": "",
      "facility_country_iso2": "SG",
      "facility_admin1": "",
      "facility_lat": "1.28333",
      "facility_lon": "103.85",
      "distance_km": "10.80607515791352",
      "name_score": "1.0",
      "admin_score": "0.0",
      "dist_score": "0.8559189978944863",
      "total_score": "0.8567756993683459"
    },
    {
      "doc_id": "111302fe966c8ccfaebeefed65b15d6541e60bbf",
      "place_name": "Shanghai",
      "geonameid": "1796236",
      "hit_lat": "31.22222",
      "hit_lon": "121.45806",
      "hit_country_iso2": "CN",
      "hit_admin1_name": "Shanghai",
      "hit_admin1_code": "23",
      "feature_class": "P",
      "feature_code": "PPLA",
      "candidate_reason": "by_country",
      "hit_type": "normal",
      "rank": "10",
      "ims_facility_id": "CGM",
      "unlocode": "CNCGM",
      "facility_name": "Chongming",
      "facility_city": "Shanghai",
      "facility_country_iso2": "CN",
      "facility_admin1": "SH",
      "facility_lat": "31.63333",
      "facility_lon": "121.4",
      "distance_km": "46.044081481742296",
      "name_score": "1.0",
      "admin_score": "1.0",
      "dist_score": "0.3860789135767694",
      "total_score": "0.8158236740730308"
    },
    {
      "doc_id": "111302fe966c8ccfaebeefed65b15d6541e60bbf",
      "place_name": "Shanghai",
      "geonameid": "1796236",
      "hit_lat": "31.22222",
      "hit_lon": "121.45806",
      "hit_country_iso2": "CN",
      "hit_admin1_name": "Shanghai",
      "hit_admin1_code": "23",
      "feature_class": "P",
      "feature_code": "PPLA",
      "candidate_reason": "by_country",
      "hit_type": "normal",
      "rank": "11",
      "ims_facility_id": "CJG",
      "unlocode": "CNCJG",
      "facility_name": "Caojing",
      "facility_city": "Shanghai",
      "facility_country_iso2": "CN",
      "facility_admin1": "SH",
      "facility_lat": "30.78333",
      "facility_lon": "121.4",
      "distance_km": "49.11506849229615",
      "name_score": "1.0",
      "admin_score": "1.0",
      "dist_score": "0.34513242010271794",
      "total_score": "0.8035397260308154"
    },
    {
      "doc_id": "111302fe966c8ccfaebeefed65b15d6541e60bbf",
      "place_name": "Beijing",
      "geonameid": "1816670",
      "hit_lat": "39.9075",
      "hit_lon": "116.39723",
      "hit_country_iso2": "CN",
      "hit_admin1_name": "Beijing",
      "hit_admin1_code": "22",
      "feature_class": "P",
      "feature_code": "PPLC",
      "candidate_reason": "by_country",
      "hit_type": "normal",
      "rank": "1",
      "ims_facility_id": "LUI",
      "unlocode": "CNLUI",
      "facility_name": "Lisui",
      "facility_city": "Beijing",
      "facility_country_iso2": "CN",
      "facility_admin1": "BJ",
      "facility_lat": "40.06667",
      "facility_lon": "116.75",
      "distance_km": "34.87885085746717",
      "name_score": "1.0",
      "admin_score": "0.0",
      "dist_score": "0.534948655233771",
      "total_score": "0.7604845965701312"
    },
    {
      "doc_id": "111302fe966c8ccfaebeefed65b15d6541e60bbf",
      "place_name": "Hong Kong",
      "geonameid": "1819729",
      "hit_lat": "22.27832",
      "hit_lon": "114.17469",
      "hit_country_iso2": "HK",
      "hit_admin1_name": "",
      "hit_admin1_code": "",
      "feature_class": "P",
      "feature_code": "PPLC",
      "candidate_reason": "by_country",
      "hit_type": "normal",
      "rank": "2",
      "ims_facility_id": "ABD",
      "unlocode": "HKABD",
      "facility_name": "Aberdeen",
      "facility_city": "",
      "facility_country_iso2": "HK",
      "facility_admin1": "",
      "facility_lat": "22.25",
      "facility_lon": "114.15",
      "distance_km": "4.046200124937641",
      "name_score": "0.782608695652174",
      "admin_score": "0.0",
      "dist_score": "0.9460506650008315",
      "total_score": "0.7533804168915538"
    },
    {
      "doc_id": "111302fe966c8ccfaebeefed65b15d6541e60bbf",
      "place_name": "Singapore",
      "geonameid": "1880252",
      "hit_lat": "1.28967",
      "hit_lon": "103.85007",
      "hit_country_iso2": "SG",
      "hit_admin1_name": "",
      "hit_admin1_code": "",
      "feature_class": "P",
      "feature_code": "PPLC",
      "candidate_reason": "by_country",
      "hit_type": "normal",
      "rank": "2",
      "ims_facility_id": "BKM",
      "unlocode": "SGBKM",
      "facility_name": "Bukit Merah Estate",
      "facility_city": "Central Singapore",
      "facility_country_iso2": "SG",
      "facility_admin1": "01",
      "facility_lat": "1.28333",
      "facility_lon": "103.81667",
      "distance_km": "3.7793080867836326",
      "name_score": "0.72",
      "admin_score": "0.0",
      "dist_score": "0.9496092255095515",
      "total_score": "0.7168827676528655"
    },
    {
      "doc_id": "111302fe966c8ccfaebeefed65b15d6541e60bbf",
      "place_name": "Shanghai",
      "geonameid": "1796236",
      "hit_lat": "31.22222",
      "hit_lon": "121.45806",
      "hit_country_iso2": "CN",
      "hit_admin1_name": "Shanghai",
      "hit_admin1_code": "23",
      "feature_class": "P",
      "feature_code": "PPLA",
      "candidate_reason": "by_country",
      "hit_type": "normal",
      "rank": "12",
      "ims_facility_id": "PDX",
      "unlocode": "CNPDX",
      "facility_name": "Pudongxinqu Pt",
      "facility_city": "Shanghai",
      "facility_country_iso2": "CN",
      "facility_admin1": "SH",
      "facility_lat": "",
      "facility_lon": "",
      "distance_km": "",
      "name_score": "1.0",
      "admin_score": "1.0",
      "dist_score": "0.0",
      "total_score": "0.7"
    },
    {
      "doc_id": "111302fe966c8ccfaebeefed65b15d6541e60bbf",
      "place_name": "Shanghai",
      "geonameid": "1796236",
      "hit_lat": "31.22222",
      "hit_lon": "121.45806",
      "hit_country_iso2": "CN",
      "hit_admin1_name": "Shanghai",
      "hit_admin1_code": "23",
      "feature_class": "P",
      "feature_code": "PPLA",
      "candidate_reason": "by_country",
      "hit_type": "normal",
      "rank": "13",
      "ims_facility_id": "SIP",
      "unlocode": "CNSIP",
      "facility_name": "Shiqu Pt",
      "facility_city": "Shanghai",
      "facility_country_iso2": "CN",
      "facility_admin1": "SH",
      "facility_lat": "",
      "facility_lon": "",
      "distance_km": "",
      "name_score": "1.0",
      "admin_score": "1.0",
      "dist_score": "0.0",
      "total_score": "0.7"
    },
    {
      "doc_id": "111302fe966c8ccfaebeefed65b15d6541e60bbf",
      "place_name": "Hong Kong",
      "geonameid": "1819729",
      "hit_lat": "22.27832",
      "hit_lon": "114.17469",
      "hit_country_iso2": "HK",
      "hit_admin1_name": "",
      "hit_admin1_code": "",
      "feature_class": "P",
      "feature_code": "PPLC",
      "candidate_reason": "by_country",
      "hit_type": "normal",
      "rank": "3",
      "ims_facility_id": "VIC",
      "unlocode": "HKVIC",
      "facility_name": "Victoria",
      "facility_city": "",
      "facility_country_iso2": "HK",
      "facility_admin1": "",
      "facility_lat": "22.278333333",
      "facility_lon": "114.174444444",
      "distance_km": "0.025309840450551128",
      "name_score": "0.6666666666666666",
      "admin_score": "0.0",
      "dist_score": "0.9996625354606593",
      "total_score": "0.6998987606381977"
    },
    {
      "doc_id": "111302fe966c8ccfaebeefed65b15d6541e60bbf",
      "place_name": "Singapore",
      "geonameid": "1880252",
      "hit_lat": "1.28967",
      "hit_lon": "103.85007",
      "hit_country_iso2": "SG",
      "hit_admin1_name": "",
      "hit_admin1_code": "",
      "feature_class": "P",
      "feature_code": "PPLC",
      "candidate_reason": "by_country",
      "hit_type": "normal",
      "rank": "3",
      "ims_facility_id": "JUR",
      "unlocode": "SGJUR",
      "facility_name": "Jurong/Singapore",
      "facility_city": "",
      "facility_country_iso2": "SG",
      "facility_admin1": "",
      "facility_lat": "1.33333",
      "facility_lon": "103.7",
      "distance_km": "17.37468374476754",
      "name_score": "0.72",
      "admin_score": "0.0",
      "dist_score": "0.7683375500697661",
      "total_score": "0.6625012650209299"
    },
    {
      "doc_id": "111302fe966c8ccfaebeefed65b15d6541e60bbf",
      "place_name": "Beijing",
      "geonameid": "1816670",
      "hit_lat": "39.9075",
      "hit_lon": "116.39723",
      "hit_country_iso2": "CN",
      "hit_admin1_name": "Beijing",
      "hit_admin1_code": "22",
      "feature_class": "P",
      "feature_code": "PPLC",
      "candidate_reason": "by_country",
      "hit_type": "normal",
      "rank": "2",
      "ims_facility_id": "MIY",
      "unlocode": "CNMIY",
      "facility_name": "Miyun",
      "facility_city": "Beijing",
      "facility_country_iso2": "CN",
      "facility_admin1": "11",
      "facility_lat": "40.36667",
      "facility_lon": "116.83333",
      "distance_km": "63.09670721266195",
      "name_score": "1.0",
      "admin_score": "0.0",
      "dist_score": "0.15871057049784065",
      "total_score": "0.6476131711493521"
    },
    {
      "doc_id": "111302fe966c8ccfaebeefed65b15d6541e60bbf",
      "place_name": "Republic of Singapore",
      "geonameid": "1880251",
      "hit_lat": "1.36667",
      "hit_lon": "103.8",
      "hit_country_iso2": "SG",
      "hit_admin1_name": "",
      "hit_admin1_code": "00",
      "feature_class": "A",
      "feature_code": "PCLI",
      "candidate_reason": "by_country",
      "hit_type": "country",
      "rank": "2",
      "ims_facility_id": "BKM",
      "unlocode": "SGBKM",
      "facility_name": "Bukit Merah Estate",
      "facility_city": "Central Singapore",
      "facility_country_iso2": "SG",
      "facility_admin1": "01",
      "facility_lat": "1.28333",
      "facility_lon": "103.81667",
      "distance_km": "9.450454044568794",
      "name_score": "0.631578947368421",
      "admin_score": "0.0",
      "dist_score": "0.8739939460724161",
      "total_score": "0.6411455522427774"
    },
    {
      "doc_id": "111302fe966c8ccfaebeefed65b15d6541e60bbf",
      "place_name": "Republic of Singapore",
      "geonameid": "1880251",
      "hit_lat": "1.36667",
      "hit_lon": "103.8",
      "hit_country_iso2": "SG",
      "hit_admin1_name": "",
      "hit_admin1_code": "00",
      "feature_class": "A",
      "feature_code": "PCLI",
      "candidate_reason": "by_country",
      "hit_type": "country",
      "rank": "10",
      "ims_facility_id": "JUR",
      "unlocode": "SGJUR",
      "facility_name": "Jurong/Singapore",
      "facility_city": "",
      "facility_country_iso2": "SG",
      "facility_admin1": "",
      "facility_lat": "1.33333",
      "facility_lon": "103.7",
      "distance_km": "11.718280755631644",
      "name_score": "0.5945945945945946",
      "admin_score": "0.0",
      "dist_score": "0.843756256591578",
      "total_score": "0.6098836337342302"
    },
    {
      "doc_id": "111302fe966c8ccfaebeefed65b15d6541e60bbf",
      "place_name": "Singapore",
      "geonameid": "1880252",
      "hit_lat": "1.28967",
      "hit_lon": "103.85007",
      "hit_country_iso2": "SG",
      "hit_admin1_name": "",
      "hit_admin1_code": "",
      "feature_class": "P",
      "feature_code": "PPLC",
      "candidate_reason": "by_country",
      "hit_type": "normal",
      "rank": "4",
      "ims_facility_id": "SCT",
      "unlocode": "SGSCT",
      "facility_name": "Singapore Container Terminal",
      "facility_city": "",
      "facility_country_iso2": "SG",
      "facility_admin1": "",
      "facility_lat": "1.26667",
      "facility_lon": "103.833",
      "distance_km": "3.184603887884378",
      "name_score": "0.5142857142857142",
      "admin_score": "0.0",
      "dist_score": "0.9575386148282083",
      "total_score": "0.595833013019891"
    },
    {
      "doc_id": "111302fe966c8ccfaebeefed65b15d6541e60bbf",
      "place_name": "Singapore",
      "geonameid": "1880252",
      "hit_lat": "1.28967",
      "hit_lon": "103.85007",
      "hit_country_iso2": "SG",
      "hit_admin1_name": "",
      "hit_admin1_code": "",
      "feature_class": "P",
      "feature_code": "PPLC",
      "candidate_reason": "by_country",
      "hit_type": "normal",
      "rank": "5",
      "ims_facility_id": "PAP",
      "unlocode": "SGPAP",
      "facility_name": "Pasir Panjang Wharves",
      "facility_city": "",
      "facility_country_iso2": "SG",
      "facility_admin1": "",
      "facility_lat": "1.26667",
      "facility_lon": "103.78333",
      "distance_km": "7.847724215923911",
      "name_score": "0.5",
      "admin_score": "0.0",
      "dist_score": "0.8953636771210145",
      "total_score": "0.5686091031363043"
    },
    {
      "doc_id": "111302fe966c8ccfaebeefed65b15d6541e60bbf",
      "place_name": "Singapore",
      "geonameid": "1880252",
      "hit_lat": "1.28967",
      "hit_lon": "103.85007",
      "hit_country_iso2": "SG",
      "hit_admin1_name": "",
      "hit_admin1_code": "",
      "feature_class": "P",
      "feature_code": "PPLC",
      "candidate_reason": "by_country",
      "hit_type": "normal",
      "rank": "6",
      "ims_facility_id": "SEM",
      "unlocode": "SGSEM",
      "facility_name": "Sembawang Port",
      "facility_city": "",
      "facility_country_iso2": "SG",
      "facility_admin1": "",
      "facility_lat": "1.449111111",
      "facility_lon": "103.818494444",
      "distance_km": "18.073165687225917",
      "name_score": "0.5454545454545454",
      "admin_score": "0.0",
      "dist_score": "0.7590244575036544",
      "total_score": "0.5549800645238235"
    },
    {
      "doc_id": "111302fe966c8ccfaebeefed65b15d6541e60bbf",
      "place_name": "Republic of Singapore",
      "geonameid": "1880251",
      "hit_lat": "1.36667",
      "hit_lon": "103.8",
      "hit_country_iso2": "SG",
      "hit_admin1_name": "",
      "hit_admin1_code": "00",
      "feature_class": "A",
      "feature_code": "PCLI",
      "candidate_reason": "by_country",
      "hit_type": "country",
      "rank": "1",
      "ims_facility_id": "SEM",
      "unlocode": "SGSEM",
      "facility_name": "Sembawang Port",
      "facility_city": "",
      "facility_country_iso2": "SG",
      "facility_admin1": "",
      "facility_lat": "1.449111111",
      "facility_lon": "103.818494444",
      "distance_km": "9.394737350274271",
      "name_score": "0.4117647058823529",
      "admin_score": "0.0",
      "dist_score": "0.8747368353296764",
      "total_score": "0.5094798741283146"
    }
  ],
  "11774b5e8e671880de577b441d4a7ee294e23b66": [
    {
      "doc_id": "11774b5e8e671880de577b441d4a7ee294e23b66",
      "place_name": "Singapore",
      "geonameid": "1880252",
      "hit_lat": "1.28967",
      "hit_lon": "103.85007",
      "hit_country_iso2": "SG",
      "hit_admin1_name": "",
      "hit_admin1_code": "",
      "feature_class": "P",
      "feature_code": "PPLC",
      "candidate_reason": "by_country",
      "hit_type": "normal",
      "rank": "1",
      "ims_facility_id": "SIN",
      "unlocode": "SGSIN",
      "facility_name": "Singapore",
      "facility_city": "",
      "facility_country_iso2": "SG",
      "facility_admin1": "",
      "facility_lat": "1.28333",
      "facility_lon": "103.85",
      "distance_km": "0.7050187816064034",
      "name_score": "1.0",
      "admin_score": "0.0",
      "dist_score": "0.9905997495785813",
      "total_score": "0.8971799248735743"
    },
    {
      "doc_id": "11774b5e8e671880de577b441d4a7ee294e23b66",
      "place_name": "Republic of Singapore",
      "geonameid": "1880251",
      "hit_lat": "1.36667",
      "hit_lon": "103.8",
      "hit_country_iso2": "SG",
      "hit_admin1_name": "",
      "hit_admin1_code": "00",
      "feature_class": "A",
      "feature_code": "PCLI",
      "candidate_reason": "by_country",
      "hit_type": "country",
      "rank": "5",
      "ims_facility_id": "SIN",
      "unlocode": "SGSIN",
      "facility_name": "Singapore",
      "facility_city": "",
      "facility_country_iso2": "SG",
      "facility_admin1": "",
      "facility_lat": "1.28333",
      "facility_lon": "103.85",
      "distance_km": "10.80607515791352",
      "name_score": "1.0",
      "admin_score": "0.0",
      "dist_score": "0.8559189978944863",
      "total_score": "0.8567756993683459"
    },
    {
      "doc_id": "11774b5e8e671880de577b441d4a7ee294e23b66",
      "place_name": "Singapore",
      "geonameid": "1880252",
      "hit_lat": "1.28967",
      "hit_lon": "103.85007",
      "hit_country_iso2": "SG",
      "hit_admin1_name": "",
      "hit_admin1_code": "",
      "feature_class": "P",
      "feature_code": "PPLC",
      "candidate_reason": "by_country",
      "hit_type": "normal",
      "rank": "2",
      "ims_facility_id": "BKM",
      "unlocode": "SGBKM",
      "facility_name": "Bukit Merah Estate",
      "facility_city": "Central Singapore",
      "facility_country_iso2": "SG",
      "facility_admin1": "01",
      "facility_lat": "1.28333",
      "facility_lon": "103.81667",
      "distance_km": "3.7793080867836326",
      "name_score": "0.72",
      "admin_score": "0.0",
      "dist_score": "0.9496092255095515",
      "total_score": "0.7168827676528655"
    },
    {
      "doc_id": "11774b5e8e671880de577b441d4a7ee294e23b66",
      "place_name": "Singapore",
      "geonameid": "1880252",
      "hit_lat": "1.28967",
      "hit_lon": "103.85007",
      "hit_country_iso2": "SG",
      "hit_admin1_name": "",
      "hit_admin1_code": "",
      "feature_class": "P",
      "feature_code": "PPLC",
      "candidate_reason": "by_country",
      "hit_type": "normal",
      "rank": "3",
      "ims_facility_id": "JUR",
      "unlocode": "SGJUR",
      "facility_name": "Jurong/Singapore",
      "facility_city": "",
      "facility_country_iso2": "SG",
      "facility_admin1": "",
      "facility_lat": "1.33333",
      "facility_lon": "103.7",
      "distance_km": "17.37468374476754",
      "name_score": "0.72",
      "admin_score": "0.0",
      "dist_score": "0.7683375500697661",
      "total_score": "0.6625012650209299"
    },
    {
      "doc_id": "11774b5e8e671880de577b441d4a7ee294e23b66",
      "place_name": "Republic of Singapore",
      "geonameid": "1880251",
      "hit_lat": "1.36667",
      "hit_lon": "103.8",
      "hit_country_iso2": "SG",
      "hit_admin1_name": "",
      "hit_admin1_code": "00",
      "feature_class": "A",
      "feature_code": "PCLI",
      "candidate_reason": "by_country",
      "hit_type": "country",
      "rank": "2",
      "ims_facility_id": "BKM",
      "unlocode": "SGBKM",
      "facility_name": "Bukit Merah Estate",
      "facility_city": "Central Singapore",
      "facility_country_iso2": "SG",
      "facility_admin1": "01",
      "facility_lat": "1.28333",
      "facility_lon": "103.81667",
      "distance_km": "9.450454044568794",
      "name_score": "0.631578947368421",
      "admin_score": "0.0",
      "dist_score": "0.8739939460724161",
      "total_score": "0.6411455522427774"
    },
    {
      "doc_id": "11774b5e8e671880de577b441d4a7ee294e23b66",
      "place_name": "Republic of Singapore",
      "geonameid": "1880251",
      "hit_lat": "1.36667",
      "hit_lon": "103.8",
      "hit_country_iso2": "SG",
      "hit_admin1_name": "",
      "hit_admin1_code": "00",
      "feature_class": "A",
      "feature_code": "PCLI",
      "candidate_reason": "by_country",
      "hit_type": "country",
      "rank": "10",
      "ims_facility_id": "JUR",
      "unlocode": "SGJUR",
      "facility_name": "Jurong/Singapore",
      "facility_city": "",
      "facility_country_iso2": "SG",
      "facility_admin1": "",
      "facility_lat": "1.33333",
      "facility_lon": "103.7",
      "distance_km": "11.718280755631644",
      "name_score": "0.5945945945945946",
      "admin_score": "0.0",
      "dist_score": "0.843756256591578",
      "total_score": "0.6098836337342302"
    },
    {
      "doc_id": "11774b5e8e671880de577b441d4a7ee294e23b66",
      "place_name": "Singapore",
      "geonameid": "1880252",
      "hit_lat": "1.28967",
      "hit_lon": "103.85007",
      "hit_country_iso2": "SG",
      "hit_admin1_name": "",
      "hit_admin1_code": "",
      "feature_class": "P",
      "feature_code": "PPLC",
      "candidate_reason": "by_country",
      "hit_type": "normal",
      "rank": "4",
      "ims_facility_id": "SCT",
      "unlocode": "SGSCT",
      "facility_name": "Singapore Container Terminal",
      "facility_city": "",
      "facility_country_iso2": "SG",
      "facility_admin1": "",
      "facility_lat": "1.26667",
      "facility_lon": "103.833",
      "distance_km": "3.184603887884378",
      "name_score": "0.5142857142857142",
      "admin_score": "0.0",
      "dist_score": "0.9575386148282083",
      "total_score": "0.595833013019891"
    },
    {
      "doc_id": "11774b5e8e671880de577b441d4a7ee294e23b66",
      "place_name": "Singapore",
      "geonameid": "1880252",
      "hit_lat": "1.28967",
      "hit_lon": "103.85007",
      "hit_country_iso2": "SG",
      "hit_admin1_name": "",
      "hit_admin1_code": "",
      "feature_class": "P",
      "feature_code": "PPLC",
      "candidate_reason": "by_country",
      "hit_type": "normal",
      "rank": "5",
      "ims_facility_id": "PAP",
      "unlocode": "SGPAP",
      "facility_name": "Pasir Panjang Wharves",
      "facility_city": "",
      "facility_country_iso2": "SG",
      "facility_admin1": "",
      "facility_lat": "1.26667",
      "facility_lon": "103.78333",
      "distance_km": "7.847724215923911",
      "name_score": "0.5",
      "admin_score": "0.0",
      "dist_score": "0.8953636771210145",
      "total_score": "0.5686091031363043"
    },
    {
      "doc_id": "11774b5e8e671880de577b441d4a7ee294e23b66",
      "place_name": "Singapore",
      "geonameid": "1880252",
      "hit_lat": "1.28967",
      "hit_lon": "103.85007",
      "hit_country_iso2": "SG",
      "hit_admin1_name": "",
      "hit_admin1_code": "",
      "feature_class": "P",
      "feature_code": "PPLC",
      "candidate_reason": "by_country",
      "hit_type": "normal",
      "rank": "6",
      "ims_facility_id": "SEM",
      "unlocode": "SGSEM",
      "facility_name": "Sembawang Port",
      "facility_city": "",
      "facility_country_iso2": "SG",
      "facility_admin1": "",
      "facility_lat": "1.449111111",
      "facility_lon": "103.818494444",
      "distance_km": "18.073165687225917",
      "name_score": "0.5454545454545454",
      "admin_score": "0.0",
      "dist_score": "0.7590244575036544",
      "total_score": "0.5549800645238235"
    },
    {
      "doc_id": "11774b5e8e671880de577b441d4a7ee294e23b66",
      "place_name": "Republic of Singapore",
      "geonameid": "1880251",
      "hit_lat": "1.36667",
      "hit_lon": "103.8",
      "hit_country_iso2": "SG",
      "hit_admin1_name": "",
      "hit_admin1_code": "00",
      "feature_class": "A",
      "feature_code": "PCLI",
      "candidate_reason": "by_country",
      "hit_type": "country",
      "rank": "1",
      "ims_facility_id": "SEM",
      "unlocode": "SGSEM",
      "facility_name": "Sembawang Port",
      "facility_city": "",
      "facility_country_iso2": "SG",
      "facility_admin1": "",
      "facility_lat": "1.449111111",
      "facility_lon": "103.818494444",
      "distance_km": "9.394737350274271",
      "name_score": "0.4117647058823529",
      "admin_score": "0.0",
      "dist_score": "0.8747368353296764",
      "total_score": "0.5094798741283146"
    }
  ],
  "18655bdde701f1f5aeb759f9eaa46e7506e1bfe6": [
    {
      "doc_id": "18655bdde701f1f5aeb759f9eaa46e7506e1bfe6",
      "place_name": "Laayoune",
      "geonameid": "2462881",
      "hit_lat": "27.1418",
      "hit_lon": "-13.18797",
      "hit_country_iso2": "EH",
      "hit_admin1_name": "",
      "hit_admin1_code": "",
      "feature_class": "P",
      "feature_code": "PPLA",
      "candidate_reason": "by_country",
      "hit_type": "normal",
      "rank": "1",
      "ims_facility_id": "EAI",
      "unlocode": "EHEAI",
      "facility_name": "Ejbei Uad el Aabd",
      "facility_city": "",
      "facility_country_iso2": "EH",
      "facility_admin1": "",
      "facility_lat": "27.15",
      "facility_lon": "-13.2",
      "distance_km": "1.4994179804396905",
      "name_score": "1.0",
      "admin_score": "0.0",
      "dist_score": "0.9800077602608042",
      "total_score": "0.8940023280782412"
    }
  ],
  "18a04f80ccbd2a248babd80d8afba7e54d61ce97": [
    {
      "doc_id": "18a04f80ccbd2a248babd80d8afba7e54d61ce97",
      "place_name": "Kingston upon Hull",
      "geonameid": "2645425",
      "hit_lat": "53.7446",
      "hit_lon": "-0.33525",
      "hit_country_iso2": "GB",
      "hit_admin1_name": "England",
      "hit_admin1_code": "ENG",
      "feature_class": "P",
      "feature_code": "PPLA2",
      "candidate_reason": "by_country",
      "hit_type": "normal",
      "rank": "1",
      "ims_facility_id": "HSE",
      "unlocode": "GBHSE",
      "facility_name": "Hessle/Hull",
      "facility_city": "Kingston upon Hull",
      "facility_country_iso2": "GB",
      "facility_admin1": "KHL",
      "facility_lat": "53.71667",
      "facility_lon": "-0.43333",
      "distance_km": "7.1603666499900935",
      "name_score": "1.0",
      "admin_score": "0.0",
      "dist_score": "0.9045284446667987",
      "total_score": "0.8713585334000395"
    },
    {
      "doc_id": "18a04f80ccbd2a248babd80d8afba7e54d61ce97",
      "place_name": "Kingston upon Hull",
      "geonameid": "2645425",
      "hit_lat": "53.7446",
      "hit_lon": "-0.33525",
      "hit_country_iso2": "GB",
      "hit_admin1_name": "England",
      "hit_admin1_code": "ENG",
      "feature_class": "P",
      "feature_code": "PPLA2",
      "candidate_reason": "by_country",
      "hit_type": "normal",
      "rank": "2",
      "ims_facility_id": "JHW",
      "unlocode": "GBJHW",
      "facility_name": "Crown Dry-Dock",
      "facility_city": "Kingston upon Hull",
      "facility_country_iso2": "GB",
      "facility_admin1": "KHL",
      "facility_lat": "53.23333",
      "facility_lon": "-0.31667",
      "distance_km": "56.86391717514834",
      "name_score": "1.0",
      "admin_score": "0.0",
      "dist_score": "0.2418144376646888",
      "total_score": "0.6725443312994066"
    },
    {
      "doc_id": "18a04f80ccbd2a248babd80d8afba7e54d61ce97",
      "place_name": "Republic of the Marshall Islands",
      "geonameid": "2080185",
      "hit_lat": "7.113",
      "hit_lon": "171.236",
      "hit_country_iso2": "MH",
      "hit_admin1_name": "",
      "hit_admin1_code": "00",
      "feature_class": "A",
      "feature_code": "PCLF",
      "candidate_reason": "by_country",
      "hit_type": "normal",
      "rank": "1",
      "ims_facility_id": "MAJ",
      "unlocode": "MHMAJ",
      "facility_name": "Majuro",
      "facility_city": "Majuro",
      "facility_country_iso2": "MH",
      "facility_admin1": "MAJ",
      "facility_lat": "7.1",
      "facility_lon": "171.38333",
      "distance_km": "16.320639932588897",
      "name_score": "0.6785714285714286",
      "admin_score": "0.0",
      "dist_score": "0.7823914675654814",
      "total_score": "0.6418602974125016"
    },
    {
      "doc_id": "18a04f80ccbd2a248babd80d8afba7e54d61ce97",
      "place_name": "Kingston upon Hull",
      "geonameid": "2645425",
      "hit_lat": "53.7446",
      "hit_lon": "-0.33525",
      "hit_country_iso2": "GB",
      "hit_admin1_name": "England",
      "hit_admin1_code": "ENG",
      "feature_class": "P",
      "feature_code": "PPLA2",
      "candidate_reason": "by_country",
      "hit_type": "normal",
      "rank": "3",
      "ims_facility_id": "BNH",
      "unlocode": "GBBNH",
      "facility_name": "Barton upon Humber",
      "facility_city": "North Lincolnshire",
      "facility_country_iso2": "GB",
      "facility_admin1": "NLN",
      "facility_lat": "53.66667",
      "facility_lon": "-0.43333",
      "distance_km": "10.805768309659687",
      "name_score": "0.6111111111111112",
      "admin_score": "0.0",
      "dist_score": "0.8559230892045375",
      "total_score": "0.623443593428028"
    },
    {
      "doc_id": "18a04f80ccbd2a248babd80d8afba7e54d61ce97",
      "place_name": "Albert Dock",
      "geonameid": "7603103",
      "hit_lat": "53.4003",
      "hit_lon": "-2.9927",
      "hit_country_iso2": "GB",
      "hit_admin1_name": "England",
      "hit_admin1_code": "ENG",
      "feature_class": "S",
      "feature_code": "BLDG",
      "candidate_reason": "by_country",
      "hit_type": "normal",
      "rank": "1",
      "ims_facility_id": "LIV",
      "unlocode": "GBLIV",
      "facility_name": "Liverpool",
      "facility_city": "Liverpool",
      "facility_country_iso2": "GB",
      "facility_admin1": "LIV",
      "facility_lat": "53.41667",
      "facility_lon": "-3.0",
      "distance_km": "1.8834762826751736",
      "name_score": "0.5454545454545454",
      "admin_score": "0.0",
      "dist_score": "0.9748869828976644",
      "total_score": "0.6197388221420266"
    },