{
  "01217f5e840ff8cfdbbb6760db3d87015bf9ec69": [
    {
      "doc_id": "01217f5e840ff8cfdbbb6760db3d87015bf9ec69",
      "place_name": "Singapore",
      "geonameid": "1880252",
      "hit_lat": "1.28967",
      "hit_lon": "103.85007",
      "hit_country_iso2": "SG",
      "hit_admin1_name": "",
      "hit_admin1_code": "",
      "feature_class": "P",
      "feature_code": "PPLC",
      "candidate_reason": "by_country",
      "hit_type": "normal",
      "rank": "1",
      "ims_facility_id": "SIN",
      "unlocode": "SGSIN",
      "facility_name": "Singapore",
      "facility_city": "",
      "facility_country_iso2": "SG",
      "facility_admin1": "",
      "facility_lat": "1.28333",
      "facility_lon": "103.85",
      "distance_km": "0.7050187816064034",
      "name_score": "1.0",
      "admin_score": "0.0",
      "dist_score": "0.9905997495785813",
      "total_score": "0.8971799248735743"
    },
    {
      "doc_id": "01217f5e840ff8cfdbbb6760db3d87015bf9ec69",
      "place_name": "Batam",
      "geonameid": "6295587",
      "hit_lat": "1.14937",
      "hit_lon": "104.02491",
      "hit_country_iso2": "ID",
      "hit_admin1_name": "Riau",
      "hit_admin1_code": "37",
      "feature_class": "P",
      "feature_code": "PPL",
      "candidate_reason": "by_country",
      "hit_type": "normal",
      "rank": "1",
      "ims_facility_id": "BTM",
      "unlocode": "IDBTM",
      "facility_name": "Batam Island",
      "facility_city": "Kepulauan Riau",
      "facility_country_iso2": "ID",
      "facility_admin1": "KR",
      "facility_lat": "1.08333",
      "facility_lon": "104.03333",
      "distance_km": "7.402735813441795",
      "name_score": "1.0",
      "admin_score": "0.0",
      "dist_score": "0.9012968558207761",
      "total_score": "0.8703890567462328"
    },
    {
      "doc_id": "01217f5e840ff8cfdbbb6760db3d87015bf9ec69",
      "place_name": "Republic of Singapore",
      "geonameid": "1880251",
      "hit_lat": "1.36667",
      "hit_lon": "103.8",
      "hit_country_iso2": "SG",
      "hit_admin1_name": "",
      "hit_admin1_code": "00",
      "feature_class": "A",
      "feature_code": "PCLI",
      "candidate_reason": "by_country",
      "hit_type": "country",
      "rank": "5",
      "ims_facility_id": "SIN",
      "unlocode": "SGSIN",
      "facility_name": "Singapore",
      "facility_city": "",
      "facility_country_iso2": "SG",
      "facility_admin1": "",
      "facility_lat": "1.28333",
      "facility_lon": "103.85",
      "distance_km": "10.80607515791352",
      "name_score": "1.0",
      "admin_score": "0.0",
      "dist_score": "0.8559189978944863",
      "total_score": "0.8567756993683459"
    },
    {
      "doc_id": "01217f5e840ff8cfdbbb6760db3d87015bf9ec69",
      "place_name": "Batam",
      "geonameid": "6295587",
      "hit_lat": "1.14937",
      "hit_lon": "104.02491",
      "hit_country_iso2": "ID",
      "hit_admin1_name": "Riau",
      "hit_admin1_code": "37",
      "feature_class": "P",
      "feature_code": "PPL",
      "candidate_reason": "by_country",
      "hit_type": "normal",
      "rank": "2",
      "ims_facility_id": "BUR",
      "unlocode": "IDBUR",
      "facility_name": "Batu Ampar",
      "facility_city": "",
      "facility_country_iso2": "ID",
      "facility_admin1": "KR",
      "facility_lat": "1.16667",
      "facility_lon": "104.01667",
      "distance_km": "2.1306522589964714",
      "name_score": "0.7142857142857143",
      "admin_score": "0.0",
      "dist_score": "0.9715913032133804",
      "total_score": "0.7200488195354426"
    },
    {
      "doc_id": "01217f5e840ff8cfdbbb6760db3d87015bf9ec69",
      "place_name": "Singapore",
      "geonameid": "1880252",
      "hit_lat": "1.28967",
      "hit_lon": "103.85007",
      "hit_country_iso2": "SG",
      "hit_admin1_name": "",
      "hit_admin1_code": "",
      "feature_class": "P",
      "feature_code": "PPLC",
      "candidate_reason": "by_country",
      "hit_type": "normal",
      "rank": "2",
      "ims_facility_id": "BKM",
      "unlocode": "SGBKM",
      "facility_name": "Bukit Merah Estate",
      "facility_city": "Central Singapore",
      "facility_country_iso2": "SG",
      "facility_admin1": "01",
      "facility_lat": "1.28333",
      "facility_lon": "103.81667",
      "distance_km": "3.7793080867836326",
      "name_score": "0.72",
      "admin_score": "0.0",
      "dist_score": "0.9496092255095515",
      "total_score": "0.7168827676528655"
    },
    {
      "doc_id": "01217f5e840ff8cfdbbb6760db3d87015bf9ec69",
      "place_name": "Singapore",
      "geonameid": "1880252",
      "hit_lat": "1.28967",
      "hit_lon": "103.85007",
      "hit_country_iso2": "SG",
      "hit_admin1_name": "",
      "hit_admin1_code": "",
      "feature_class": "P",
      "feature_code": "PPLC",
      "candidate_reason": "by_country",
      "hit_type": "normal",
      "rank": "3",
      "ims_facility_id": "JUR",
      "unlocode": "SGJUR",
      "facility_name": "Jurong/Singapore",
      "facility_city": "",
      "facility_country_iso2": "SG",
      "facility_admin1": "",
      "facility_lat": "1.33333",
      "facility_lon": "103.7",
      "distance_km": "17.37468374476754",
      "name_score": "0.72",
      "admin_score": "0.0",
      "dist_score": "0.7683375500697661",
      "total_score": "0.6625012650209299"
    },
    {
      "doc_id": "01217f5e840ff8cfdbbb6760db3d87015bf9ec69",
      "place_name": "Republic of Singapore",
      "geonameid": "1880251",
      "hit_lat": "1.36667",
      "hit_lon": "103.8",
      "hit_country_iso2": "SG",
      "hit_admin1_name": "",
      "hit_admin1_code": "00",
      "feature_class": "A",
      "feature_code": "PCLI",
      "candidate_reason": "by_country",
      "hit_type": "country",
      "rank": "2",
      "ims_facility_id": "BKM",
      "unlocode": "SGBKM",
      "facility_name": "Bukit Merah Estate",
      "facility_city": "Central Singapore",
      "facility_country_iso2": "SG",
      "facility_admin1": "01",
      "facility_lat": "1.28333",
      "facility_lon": "103.81667",
      "distance_km": "9.450454044568794",
      "name_score": "0.631578947368421",
      "admin_score": "0.0",
      "dist_score": "0.8739939460724161",
      "total_score": "0.6411455522427774"
    },
    {
      "doc_id": "01217f5e840ff8cfdbbb6760db3d87015bf9ec69",
      "place_name": "Republic of Singapore",
      "geonameid": "1880251",
      "hit_lat": "1.36667",
      "hit_lon": "103.8",
      "hit_country_iso2": "SG",
      "hit_admin1_name": "",
      "hit_admin1_code": "00",
      "feature_class": "A",
      "feature_code": "PCLI",
      "candidate_reason": "by_country",
      "hit_type": "country",
      "rank": "10",
      "ims_facility_id": "JUR",
      "unlocode": "SGJUR",
      "facility_name": "Jurong/Singapore",
      "facility_city": "",
      "facility_country_iso2": "SG",
      "facility_admin1": "",
      "facility_lat": "1.33333",
      "facility_lon": "103.7",
      "distance_km": "11.718280755631644",
      "name_score": "0.5945945945945946",
      "admin_score": "0.0",
      "dist_score": "0.843756256591578",
      "total_score": "0.6098836337342302"
    },
    {
      "doc_id": "01217f5e840ff8cfdbbb6760db3d87015bf9ec69",
      "place_name": "Singapore",
      "geonameid": "1880252",
      "hit_lat": "1.28967",
      "hit_lon": "103.85007",
      "hit_country_iso2": "SG",
      "hit_admin1_name": "",
      "hit_admin1_code": "",
      "feature_class": "P",
      "feature_code": "PPLC",
      "candidate_reason": "by_country",
      "hit_type": "normal",
      "rank": "4",
      "ims_facility_id": "SCT",
      "unlocode": "SGSCT",
      "facility_name": "Singapore Container Terminal",
      "facility_city": "",
      "facility_country_iso2": "SG",
      "facility_admin1": "",
      "facility_lat": "1.26667",
      "facility_lon": "103.833",
      "distance_km": "3.184603887884378",
      "name_score": "0.5142857142857142",
      "admin_score": "0.0",
      "dist_score": "0.9575386148282083",
      "total_score": "0.595833013019891"
    },
    {
      "doc_id": "01217f5e840ff8cfdbbb6760db3d87015bf9ec69",
      "place_name": "Singapore",
      "geonameid": "1880252",
      "hit_lat": "1.28967",
      "hit_lon": "103.85007",
      "hit_country_iso2": "SG",
      "hit_admin1_name": "",
      "hit_admin1_code": "",
      "feature_class": "P",
      "feature_code": "PPLC",
      "candidate_reason": "by_country",
      "hit_type": "normal",
      "rank": "5",
      "ims_facility_id": "PAP",
      "unlocode": "SGPAP",
      "facility_name": "Pasir Panjang Wharves",
      "facility_city": "",
      "facility_country_iso2": "SG",
      "facility_admin1": "",
      "facility_lat": "1.26667",
      "facility_lon": "103.78333",
      "distance_km": "7.847724215923911",
      "name_score": "0.5",
      "admin_score": "0.0",
      "dist_score": "0.8953636771210145",
      "total_score": "0.5686091031363043"
    },
    {
      "doc_id": "01217f5e840ff8cfdbbb6760db3d87015bf9ec69",
      "place_name": "Singapore",
      "geonameid": "1880252",
      "hit_lat": "1.28967",
      "hit_lon": "103.85007",
      "hit_country_iso2": "SG",
      "hit_admin1_name": "",
      "hit_admin1_code": "",
      "feature_class": "P",
      "feature_code": "PPLC",
      "candidate_reason": "by_country",
      "hit_type": "normal",
      "rank": "6",
      "ims_facility_id": "SEM",
      "unlocode": "SGSEM",
      "facility_name": "Sembawang Port",
      "facility_city": "",
      "facility_country_iso2": "SG",
      "facility_admin1": "",
      "facility_lat": "1.449111111",
      "facility_lon": "103.818494444",
      "distance_km": "18.073165687225917",
      "name_score": "0.5454545454545454",
      "admin_score": "0.0",
      "dist_score": "0.7590244575036544",
      "total_score": "0.5549800645238235"
    },
    {
      "doc_id": "01217f5e840ff8cfdbbb6760db3d87015bf9ec69",
      "place_name": "Batam",
      "geonameid": "6295587",
      "hit_lat": "1.14937",
      "hit_lon": "104.02491",
      "hit_country_iso2": "ID",
      "hit_admin1_name": "Riau",
      "hit_admin1_code": "37",
      "feature_class": "P",
      "feature_code": "PPL",
      "candidate_reason": "by_country",
      "hit_type": "normal",
      "rank": "3",
      "ims_facility_id": "LBM",
      "unlocode": "IDLBM",
      "facility_name": "Lobam",
      "facility_city": "",
      "facility_country_iso2": "ID",
      "facility_admin1": "",
      "facility_lat": "1.0",
      "facility_lon": "104.26667",
      "distance_km": "31.59554499584638",
      "name_score": "0.6",
      "admin_score": "0.0",
      "dist_score": "0.5787260667220482",
      "total_score": "0.5336178200166144"
    },
    {
      "doc_id": "01217f5e840ff8cfdbbb6760db3d87015bf9ec69",
      "place_name": "Republic of Singapore",
      "geonameid": "1880251",
      "hit_lat": "1.36667",
      "hit_lon": "103.8",
      "hit_country_iso2": "SG",
      "hit_admin1_name": "",
      "hit_admin1_code": "00",
      "feature_class": "A",
      "feature_code": "PCLI",
      "candidate_reason": "by_country",
      "hit_type": "country",
      "rank": "1",
      "ims_facility_id": "SEM",
      "unlocode": "SGSEM",
      "facility_name": "Sembawang Port",
      "facility_city": "",
      "facility_country_iso2": "SG",
      "facility_admin1": "",
      "facility_lat": "1.449111111",
      "facility_lon": "103.818494444",
      "distance_km": "9.394737350274271",
      "name_score": "0.4117647058823529",
      "admin_score": "0.0",
      "dist_score": "0.8747368353296764",
      "total_score": "0.5094798741283146"
    }
  ],
  "0254d5477ca27590277f8116af35f0882ea8ed57": [
    {
      "doc_id": "0254d5477ca27590277f8116af35f0882ea8ed57",
      "place_name": "Dubai",
      "geonameid": "292223",
      "hit_lat": "25.07725",
      "hit_lon": "55.30927",
      "hit_country_iso2": "AE",
      "hit_admin1_name": "Dubai",
      "hit_admin1_code": "03",
      "feature_class": "P",
      "feature_code": "PPLA",
      "candidate_reason": "by_country",
      "hit_type": "normal",
      "rank": "1",
      "ims_facility_id": "DXB",
      "unlocode": "AEDXB",
      "facility_name": "Dubai",
      "facility_city": "Dubayy [Dubai]",
      "facility_country_iso2": "AE",
      "facility_admin1": "DU",
      "facility_lat": "25.25",
      "facility_lon": "55.26667",
      "distance_km": "19.68156912763346",
      "name_score": "1.0",
      "admin_score": "1.0",
      "dist_score": "0.7375790782982206",
      "total_score": "0.9212737234894661"
    },
    {
      "doc_id": "0254d5477ca27590277f8116af35f0882ea8ed57",
      "place_name": "London",
      "geonameid": "6058560",
      "hit_lat": "42.98339",
      "hit_lon": "-81.23304",
      "hit_country_iso2": "CA",
      "hit_admin1_name": "Ontario",
      "hit_admin1_code": "08",
      "feature_class": "P",
      "feature_code": "PPL",
      "candidate_reason": "by_country",
      "hit_type": "normal",
      "rank": "1",
      "ims_facility_id": "LOB",
      "unlocode": "CALOB",
      "facility_name": "Lobo",
      "facility_city": "Ontario",
      "facility_country_iso2": "CA",
      "facility_admin1": "ON",
      "facility_lat": "43.0",
      "facility_lon": "-81.41667",
      "distance_km": "15.049091135925945",
      "name_score": "0.6",
      "admin_score": "1.0",
      "dist_score": "0.7993454515209875",
      "total_score": "0.6998036354562962"
    },
    {
      "doc_id": "0254d5477ca27590277f8116af35f0882ea8ed57",
      "place_name": "Dubai",
      "geonameid": "292223",
      "hit_lat": "25.07725",
      "hit_lon": "55.30927",
      "hit_country_iso2": "AE",
      "hit_admin1_name": "Dubai",
      "hit_admin1_code": "03",
      "feature_class": "P",
      "feature_code": "PPLA",
      "candidate_reason": "by_country",
      "hit_type": "normal",
      "rank": "2",
      "ims_facility_id": "DUJ",
      "unlocode": "AEDUJ",
      "facility_name": "The Palm Jumeirah",
      "facility_city": "Dubayy [Dubai]",
      "facility_country_iso2": "AE",
      "facility_admin1": "DU",
      "facility_lat": "25.127804599999997",
      "facility_lon": "55.15351511806982",
      "distance_km": "16.66037336365785",
      "name_score": "0.5555555555555556",
      "admin_score": "1.0",
      "dist_score": "0.7778616884845619",
      "total_score": "0.6666918398787018"
    },
    {
      "doc_id": "0254d5477ca27590277f8116af35f0882ea8ed57",
      "place_name": "Dubai",
      "geonameid": "292223",
      "hit_lat": "25.07725",
      "hit_lon": "55.30927",
      "hit_country_iso2": "AE",
      "hit_admin1_name": "Dubai",
      "hit_admin1_code": "03",
      "feature_class": "P",
      "feature_code": "PPLA",
      "candidate_reason": "by_country",
      "hit_type": "normal",
      "rank": "3",
      "ims_facility_id": "FRP",
      "unlocode": "AEFRP",
      "facility_name": "Free Port",
      "facility_city": "Dubayy [Dubai]",
      "facility_country_iso2": "AE",
      "facility_admin1": "DU",
      "facility_lat": "25.25",
      "facility_lon": "55.25",
      "distance_km": "20.113793500367926",
      "name_score": "0.5555555555555556",
      "admin_score": "1.0",
      "dist_score": "0.731816086661761",
      "total_score": "0.6528781593318616"
    },
    {
      "doc_id": "0254d5477ca27590277f8116af35f0882ea8ed57",
      "place_name": "Dubai",
      "geonameid": "292223",
      "hit_lat": "25.07725",
      "hit_lon": "55.30927",
      "hit_country_iso2": "AE",
      "hit_admin1_name": "Dubai",
      "hit_admin1_code": "03",
      "feature_class": "P",
      "feature_code": "PPLA",
      "candidate_reason": "by_country",
      "hit_type": "normal",
      "rank": "4",
      "ims_facility_id": "HZP",
      "unlocode": "AEHZP",
      "facility_name": "Hamriya Free Zone Port",
      "facility_city": "Dubayy [Dubai]",
      "facility_country_iso2": "AE",
      "facility_admin1": "DU",
      "facility_lat": "25.3",
      "facility_lon": "55.31667",
      "distance_km": "24.77985949515785",
      "name_score": "0.5555555555555556",
      "admin_score": "1.0",
      "dist_score": "0.6696018733978953",
      "total_score": "0.6342138953527019"
    },
    {
      "doc_id": "0254d5477ca27590277f8116af35f0882ea8ed57",
      "place_name": "Dubai",
      "geonameid": "292223",
      "hit_lat": "25.07725",
      "hit_lon": "55.30927",
      "hit_country_iso2": "AE",
      "hit_admin1_name": "Dubai",
      "hit_admin1_code": "03",
      "feature_class": "P",
      "feature_code": "PPLA",
      "candidate_reason": "by_country",
      "hit_type": "normal",
      "rank": "5",
      "ims_facility_id": "QWE",
      "unlocode": "AEQWE",
      "facility_name": "Jebel Ali Free Zone",
      "facility_city": "Dubayy [Dubai]",
      "facility_country_iso2": "AE",
      "facility_admin1": "DU",
      "facility_lat": "25.0",
      "facility_lon": "55.05",
      "distance_km": "27.49633938750976",
      "name_score": "0.5555555555555556",
      "admin_score": "1.0",
      "dist_score": "0.6333821414998699",
      "total_score": "0.6233479757832943"
    },
    {
      "doc_id": "0254d5477ca27590277f8116af35f0882ea8ed57",
      "place_name": "London",
      "geonameid": "6058560",
      "hit_lat": "42.98339",
      "hit_lon": "-81.23304",
      "hit_country_iso2": "CA",
      "hit_admin1_name": "Ontario",
      "hit_admin1_code": "08",
      "feature_class": "P",
      "feature_code": "PPL",
      "candidate_reason": "by_country",
      "hit_type": "normal",
      "rank": "2",
      "ims_facility_id": "DCS",
      "unlocode": "CADCS",
      "facility_name": "Dorchester",
      "facility_city": "Ontario",
      "facility_country_iso2": "CA",
      "facility_admin1": "ON",
      "facility_lat": "42.98333",
      "facility_lon": "-81.06667",
      "distance_km": "13.533340783823384",
      "name_score": "0.46153846153846156",
      "admin_score": "1.0",
      "dist_score": "0.8195554562156881",
      "total_score": "0.6227897137877834"
    },
    {
      "doc_id": "0254d5477ca27590277f8116af35f0882ea8ed57",
      "place_name": "London",
      "geonameid": "6058560",
      "hit_lat": "42.98339",
      "hit_lon": "-81.23304",
      "hit_country_iso2": "CA",
      "hit_admin1_name": "Ontario",
      "hit_admin1_code": "08",
      "feature_class": "P",
      "feature_code": "PPL",
      "candidate_reason": "by_country",
      "hit_type": "normal",
      "rank": "3",
      "ims_facility_id": "THA",
      "unlocode": "CATHA",
      "facility_name": "Thamesford",
      "facility_city": "Ontario",
      "facility_country_iso2": "CA",
      "facility_admin1": "ON",
      "facility_lat": "43.05",
      "facility_lon": "-80.98333",
      "distance_km": "21.610500452232866",
      "name_score": "0.46153846153846156",
      "admin_score": "1.0",
      "dist_score": "0.7118599939702284",
      "total_score": "0.5904810751141454"
    },
    {
      "doc_id": "0254d5477ca27590277f8116af35f0882ea8ed57",
      "place_name": "Dubai",
      "geonameid": "292223",
      "hit_lat": "25.07725",
      "hit_lon": "55.30927",
      "hit_country_iso2": "AE",
      "hit_admin1_name": "Dubai",
      "hit_admin1_code": "03",
      "feature_class": "P",
      "feature_code": "PPLA",
      "candidate_reason": "by_country",
      "hit_type": "normal",
      "rank": "6",
      "ims_facility_id": "JEA",
      "unlocode": "AEJEA",
      "facility_name": "Jebel Ali",
      "facility_city": "",
      "facility_country_iso2": "AE",
      "facility_admin1": "",
      "facility_lat": "25.0338168",
      "facility_lon": "55.1366041",
      "distance_km": "18.050919622388637",
      "name_score": "0.5333333333333333",
      "admin_score": "0.0",
      "dist_score": "0.7593210717014849",
      "total_score": "0.5477963215104454"
    },
    {
      "doc_id": "0254d5477ca27590277f8116af35f0882ea8ed57",
      "place_name": "London",
      "geonameid": "6058560",
      "hit_lat": "42.98339",
      "hit_lon": "-81.23304",
      "hit_country_iso2": "CA",
      "hit_admin1_name": "Ontario",
      "hit_admin1_code": "08",
      "feature_class": "P",
      "feature_code": "PPL",
      "candidate_reason": "by_country",
      "hit_type": "normal",
      "rank": "4",
      "ims_facility_id": "PST",
      "unlocode": "CAPST",
      "facility_name": "Port Stanley",
      "facility_city": "Ontario",
      "facility_country_iso2": "CA",
      "facility_admin1": "ON",
      "facility_lat": "42.6660437",
      "facility_lon": "-81.2121712",
      "distance_km": "35.328317584344994",
      "name_score": "0.46153846153846156",
      "admin_score": "1.0",
      "dist_score": "0.5289557655420667",
      "total_score": "0.5356098065856969"
    }
  ],
  "03c5c510b5807929682655d5ef7b05264dc8a825": [
    {
      "doc_id": "03c5c510b5807929682655d5ef7b05264dc8a825",
      "place_name": "North Sea",
      "geonameid": "2960848",
      "hit_lat": "55.33333",
      "hit_lon": "3.0",
      "hit_country_iso2": "",
      "hit_admin1_name": "",
      "hit_admin1_code": "00",
      "feature_class": "H",
      "feature_code": "SEA",
      "candidate_reason": "by_sea_coords_600.0km",
      "hit_type": "sea",
      "rank": "51",
      "ims_facility_id": "NSH",
      "unlocode": "GBNSH",
      "facility_name": "North Shields",
      "facility_city": "North Tyneside",
      "facility_country_iso2": "GB",
      "facility_admin1": "NTY",
      "facility_lat": "55.0",
      "facility_lon": "-1.46667",
      "distance_km": "286.05428271765385",
      "name_score": "0.7619047619047619",
      "admin_score": "0.0",
      "dist_score": "0.5232428621372436",
      "total_score": "0.6141157157840301"
    },
    {
      "doc_id": "03c5c510b5807929682655d5ef7b05264dc8a825",
      "place_name": "Baltic Sea",
      "geonameid": "2633321",
      "hit_lat": "56.0",
      "hit_lon": "18.0",
      "hit_country_iso2": "",
      "hit_admin1_name": "",
      "hit_admin1_code": "00",
      "feature_class": "H",
      "feature_code": "SEA",
      "candidate_reason": "by_sea_coords_600.0km",
      "hit_type": "sea",
      "rank": "38",
      "ims_facility_id": "BLT",
      "unlocode": "RUBLT",
      "facility_name": "Baltiysk",
      "facility_city": "",
      "facility_country_iso2": "RU",
      "facility_admin1": "",
      "facility_lat": "54.6437214",
      "facility_lon": "19.8941584",
      "distance_km": "192.61091725440977",
      "name_score": "0.6666666666666666",
      "admin_score": "0.0",
      "dist_score": "0.6789818045759837",
      "total_score": "0.6036945413727951"
    },
    {
      "doc_id": "03c5c510b5807929682655d5ef7b05264dc8a825",
      "place_name": "Kingdom of Belgium",
      "geonameid": "2802361",
      "hit_lat": "50.75",
      "hit_lon": "4.5",
      "hit_country_iso2": "BE",
      "hit_admin1_name": "",
      "hit_admin1_code": "00",
      "feature_class": "A",
      "feature_code": "PCLI",
      "candidate_reason": "by_country",
      "hit_type": "country",
      "rank": "6",
      "ims_facility_id": "LOT",
      "unlocode": "BELOT",
      "facility_name": "Lot",
      "facility_city": "Vlaams Brabant",
      "facility_country_iso2": "BE",
      "facility_admin1": "VBR",
      "facility_lat": "50.76667",
      "facility_lon": "4.26667",
      "distance_km": "16.517021265277794",
      "name_score": "0.6",
      "admin_score": "0.0",
      "dist_score": "0.779773049796296",
      "total_score": "0.5939319149388887"
    },
    {
      "doc_id": "03c5c510b5807929682655d5ef7b05264dc8a825",
      "place_name": "Kingdom of the Netherlands",
      "geonameid": "2750405",
      "hit_lat": "52.25",
      "hit_lon": "5.75",
      "hit_country_iso2": "NL",
      "hit_admin1_name": "",
      "hit_admin1_code": "00",
      "feature_class": "A",
      "feature_code": "PCLI",
      "candidate_reason": "by_country",
      "hit_type": "country",
      "rank": "3",
      "ims_facility_id": "ZEW",
      "unlocode": "NLZEW",
      "facility_name": "Zeewolde",
      "facility_city": "Flevoland",
      "facility_country_iso2": "NL",
      "facility_admin1": "FL",
      "facility_lat": "52.35",
      "facility_lon": "5.55",
      "distance_km": "17.566891263745912",
      "name_score": "0.5957446808510638",
      "admin_score": "0.0",
      "dist_score": "0.7657747831500545",
      "total_score": "0.5871792434556546"
    },
    {
      "doc_id": "03c5c510b5807929682655d5ef7b05264dc8a825",
      "place_name": "North Sea",
      "geonameid": "2960848",
      "hit_lat": "55.33333",
      "hit_lon": "3.0",
      "hit_country_iso2": "",
      "hit_admin1_name": "",
      "hit_admin1_code": "00",
      "feature_class": "H",
      "feature_code": "SEA",
      "candidate_reason": "by_sea_coords_600.0km",
      "hit_type": "sea",
      "rank": "113",
      "ims_facility_id": "NRM",
      "unlocode": "GBNRM",
      "facility_name": "North Walsham",
      "facility_city": "Norfolk",
      "facility_country_iso2": "GB",
      "facility_admin1": "NFK",
      "facility_lat": "52.8213308",
      "facility_lon": "1.3861979",
      "distance_km": "298.4828605517527",
      "name_score": "0.7272727272727273",
      "admin_score": "0.0",
      "dist_score": "0.5025285657470788",
      "total_score": "0.58712220608776"
    },
    {
      "doc_id": "03c5c510b5807929682655d5ef7b05264dc8a825",
      "place_name": "North Sea",
      "geonameid": "2960848",
      "hit_lat": "55.33333",
      "hit_lon": "3.0",
      "hit_country_iso2": "",
      "hit_admin1_name": "",
      "hit_admin1_code": "00",
      "feature_class": "H",
      "feature_code": "SEA",
      "candidate_reason": "by_sea_coords_600.0km",
      "hit_type": "sea",
      "rank": "96",
      "ims_facility_id": "NSD",
      "unlocode": "GBNSD",
      "facility_name": "North Sunderland",
      "facility_city": "Northumberland",
      "facility_country_iso2": "GB",
      "facility_admin1": "NBL",
      "facility_lat": "55.56667",
      "facility_lon": "-1.66667",
      "distance_km": "295.372074306567",
      "name_score": "0.72",
      "admin_score": "0.0",
      "dist_score": "0.507713209489055",
      "total_score": "0.5843139628467164"
    },
    {
      "doc_id": "03c5c510b5807929682655d5ef7b05264dc8a825",
      "place_name": "North Sea",
      "geonameid": "2960848",
      "hit_lat": "55.33333",
      "hit_lon": "3.0",
      "hit_country_iso2": "",
      "hit_admin1_name": "",
      "hit_admin1_code": "00",
      "feature_class": "H",
      "feature_code": "SEA",
      "candidate_reason": "by_sea_coords_600.0km",
      "hit_type": "sea",
      "rank": "3",
      "ims_facility_id": "RBB",
      "unlocode": "GBRBB",
      "facility_name": "Robin Hoods Bay",
      "facility_city": "North Yorkshire",
      "facility_country_iso2": "GB",
      "facility_admin1": "NYK",
      "facility_lat": "54.4",
      "facility_lon": "-0.48333",
      "distance_km": "245.83973959562843",
      "name_score": "0.6666666666666666",
      "admin_score": "0.0",
      "dist_score": "0.5902671006739526",
      "total_score": "0.5770801302021857"
    },
    {
      "doc_id": "03c5c510b5807929682655d5ef7b05264dc8a825",
      "place_name": "North Sea",
      "geonameid": "2960848",
      "hit_lat": "55.33333",
      "hit_lon": "3.0",
      "hit_country_iso2": "",
      "hit_admin1_name": "",
      "hit_admin1_code": "00",
      "feature_class": "H",
      "feature_code": "SEA",
      "candidate_reason": "by_sea_coords_600.0km",
      "hit_type": "sea",
      "rank": "4",
      "ims_facility_id": "SCA",
      "unlocode": "GBSCA",
      "facility_name": "Scarborough",
      "facility_city": "North Yorkshire",
      "facility_country_iso2": "GB",
      "facility_admin1": "NYK",
      "facility_lat": "54.2820009",
      "facility_lon": "-0.4011868",
      "distance_km": "247.2954988255323",
      "name_score": "0.6666666666666666",
      "admin_score": "0.0",
      "dist_score": "0.5878408352907796",
      "total_score": "0.5763522505872338"
    },
    {
      "doc_id": "03c5c510b5807929682655d5ef7b05264dc8a825",
      "place_name": "North Sea",
      "geonameid": "2960848",
      "hit_lat": "55.33333",
      "hit_lon": "3.0",
      "hit_country_iso2": "",
      "hit_admin1_name": "",
      "hit_admin1_code": "00",
      "feature_class": "H",
      "feature_code": "SEA",
      "candidate_reason": "by_sea_coords_600.0km",
      "hit_type": "sea",
      "rank": "264",
      "ims_facility_id": "NHC",
      "unlocode": "GBNHC",
      "facility_name": "North Cove",
      "facility_city": "Suffolk",
      "facility_country_iso2": "GB",
      "facility_admin1": "SFK",
      "facility_lat": "52.43333",
      "facility_lon": "1.73333",
      "distance_km": "332.96576838259705",
      "name_score": "0.7368421052631579",
      "admin_score": "0.0",
      "dist_score": "0.44505705269567164",
      "total_score": "0.5756223789665962"
    },
    {
      "doc_id": "03c5c510b5807929682655d5ef7b05264dc8a825",
      "place_name": "North Sea",
      "geonameid": "2960848",
      "hit_lat": "55.33333",
      "hit_lon": "3.0",
      "hit_country_iso2": "",
      "hit_admin1_name": "",
      "hit_admin1_code": "00",
      "feature_class": "H",
      "feature_code": "SEA",
      "candidate_reason": "by_sea_coords_600.0km",
      "hit_type": "sea",
      "rank": "43",
      "ims_facility_id": "TYM",
      "unlocode": "GBTYM",
      "facility_name": "Tynemouth",
      "facility_city": "North Tyneside",
      "facility_country_iso2": "GB",
      "facility_admin1": "NTY",
      "facility_lat": "55.01667",
      "facility_lon": "-1.43333",
      "distance_km": "283.6616768307802",
      "name_score": "0.6956521739130435",
      "admin_score": "0.0",
      "dist_score": "0.5272305386153664",
      "total_score": "0.575560465932436"
    },
    {
      "doc_id": "03c5c510b5807929682655d5ef7b05264dc8a825",
      "place_name": "North Sea",
      "geonameid": "2960848",
      "hit_lat": "55.33333",
      "hit_lon": "3.0",
      "hit_country_iso2": "",
      "hit_admin1_name": "",
      "hit_admin1_code": "00",
      "feature_class": "H",
      "feature_code": "SEA",
      "candidate_reason": "by_sea_coords_600.0km",
      "hit_type": "sea",
      "rank": "7",
      "ims_facility_id": "WTB",
      "unlocode": "GBWTB",
      "facility_name": "Whitby",
      "facility_city": "North Yorkshire",
      "facility_country_iso2": "GB",
      "facility_admin1": "NYK",
      "facility_lat": "54.48333",
      "facility_lon": "-0.61667",
      "distance_km": "249.7296091166956",
      "name_score": "0.6666666666666666",
      "admin_score": "0.0",
      "dist_score": "0.5837839848055073",
      "total_score": "0.5751351954416521"
    },
    {
      "doc_id": "03c5c510b5807929682655d5ef7b05264dc8a825",
      "place_name": "North Sea",
      "geonameid": "2960848",
      "hit_lat": "55.33333",
      "hit_lon": "3.0",
      "hit_country_iso2": "",
      "hit_admin1_name": "",
      "hit_admin1_code": "00",
      "feature_class": "H",
      "feature_code": "SEA",
      "candidate_reason": "by_sea_coords_600.0km",
      "hit_type": "sea",
      "rank": "72",
      "ims_facility_id": "WTW",
      "unlocode": "GBWTW",
      "facility_name": "Wallsend",
      "facility_city": "North Tyneside",
      "facility_country_iso2": "GB",
      "facility_admin1": "NTY",
      "facility_lat": "54.98333",
      "facility_lon": "-1.53333",
      "distance_km": "290.5525713398561",
      "name_score": "0.6956521739130435",
      "admin_score": "0.0",
      "dist_score": "0.5157457144335731",
      "total_score": "0.572115018677898"
    },
    {
      "doc_id": "03c5c510b5807929682655d5ef7b05264dc8a825",
      "place_name": "North Sea",
      "geonameid": "2960848",
      "hit_lat": "55.33333",
      "hit_lon": "3.0",
      "hit_country_iso2": "",
      "hit_admin1_name": "",
      "hit_admin1_code": "00",
      "feature_class": "H",
      "feature_code": "SEA",
      "candidate_reason": "by_sea_coords_600.0km",
      "hit_type": "sea",
      "rank": "9",
      "ims_facility_id": "STZ",
      "unlocode": "GBSTZ",
      "facility_name": "Staithes",
      "facility_city": "North Yorkshire",
      "facility_country_iso2": "GB",
      "facility_admin1": "NYK",
      "facility_lat": "54.55",
      "facility_lon": "-0.8",
      "distance_km": "257.8270678274025",
      "name_score": "0.6666666666666666",
      "admin_score": "0.0",
      "dist_score": "0.5702882202876625",
      "total_score": "0.5710864660862986"
    },
    {
      "doc_id": "03c5c510b5807929682655d5ef7b05264dc8a825",
      "place_name": "North Sea",
      "geonameid": "2960848",
      "hit_lat": "55.33333",
      "hit_lon": "3.0",
      "hit_country_iso2": "",
      "hit_admin1_name": "",
      "hit_admin1_code": "00",
      "feature_class": "H",
      "feature_code": "SEA",
      "candidate_reason": "by_sea_coords_600.0km",
      "hit_type": "sea",
      "rank": "16",
      "ims_facility_id": "INT",
      "unlocode": "GBINT",
      "facility_name": "Wintringham",
      "facility_city": "North Yorkshire",
      "facility_country_iso2": "GB",
      "facility_admin1": "NYK",
      "facility_lat": "54.13333",
      "facility_lon": "-0.65",
      "distance_km": "269.6149267595098",
      "name_score": "0.6666666666666666",
      "admin_score": "0.0",
      "dist_score": "0.5506417887341504",
      "total_score": "0.565192536620245"
    },
    {
      "doc_id": "03c5c510b5807929682655d5ef7b05264dc8a825",
      "place_name": "North Sea",
      "geonameid": "2960848",
      "hit_lat": "55.33333",
      "hit_lon": "3.0",
      "hit_country_iso2": "",
      "hit_admin1_name": "",
      "hit_admin1_code": "00",
      "feature_class": "H",
      "feature_code": "SEA",
      "candidate_reason": "by_sea_coords_600.0km",
      "hit_type": "sea",
      "rank": "19",
      "ims_facility_id": "PKR",
      "unlocode": "GBPKR",
      "facility_name": "Pickering",
      "facility_city": "North Yorkshire",
      "facility_country_iso2": "GB",
      "facility_admin1": "NYK",
      "facility_lat": "54.25",
      "facility_lon": "-0.78333",
      "distance_km": "270.7648120408482",
      "name_score": "0.6666666666666666",
      "admin_score": "0.0",
      "dist_score": "0.548725313265253",
      "total_score": "0.5646175939795759"
    },
    {
      "doc_id": "03c5c510b5807929682655d5ef7b05264dc8a825",
      "place_name": "North Sea",
      "geonameid": "2960848",
      "hit_lat": "55.33333",
      "hit_lon": "3.0",
      "hit_country_iso2": "",
      "hit_admin1_name": "",
      "hit_admin1_code": "00",
      "feature_class": "H",
      "feature_code": "SEA",
      "candidate_reason": "by_sea_coords_600.0km",
      "hit_type": "sea",
      "rank": "23",
      "ims_facility_id": "CR5",
      "unlocode": "GBCR5",
      "facility_name": "Cropton",
      "facility_city": "North Yorkshire",
      "facility_country_iso2": "GB",
      "facility_admin1": "NYK",
      "facility_lat": "54.28333",
      "facility_lon": "-0.83333",
      "distance_km": "271.93668258161466",
      "name_score": "0.6666666666666666",
      "admin_score": "0.0",
      "dist_score": "0.5467721956973088",
      "total_score": "0.5640316587091926"
    },
    {
      "doc_id": "03c5c510b5807929682655d5ef7b05264dc8a825",
      "place_name": "North Sea",
      "geonameid": "2960848",
      "hit_lat": "55.33333",
      "hit_lon": "3.0",
      "hit_country_iso2": "",
      "hit_admin1_name": "",
      "hit_admin1_code": "00",
      "feature_class": "H",
      "feature_code": "SEA",
      "candidate_reason": "by_sea_coords_600.0km",
      "hit_type": "sea",
      "rank": "28",
      "ims_facility_id": "NOT",
      "unlocode": "GBNOT",
      "facility_name": "Norton",
      "facility_city": "North Yorkshire",
      "facility_country_iso2": "GB",
      "facility_admin1": "NYK",
      "facility_lat": "54.11667",
      "facility_lon": "-0.76667",
      "distance_km": "277.0880062587684",
      "name_score": "0.6666666666666666",
      "admin_score": "0.0",
      "dist_score": "0.538186656235386",
      "total_score": "0.5614559968706158"
    },
    {
      "doc_id": "03c5c510b5807929682655d5ef7b05264dc8a825",
      "place_name": "North Sea",
      "geonameid": "2960848",
      "hit_lat": "55.33333",
      "hit_lon": "3.0",
      "hit_country_iso2": "",
      "hit_admin1_name": "",
      "hit_admin1_code": "00",
      "feature_class": "H",
      "feature_code": "SEA",
      "candidate_reason": "by_sea_coords_600.0km",
      "hit_type": "sea",
      "rank": "1",
      "ims_facility_id": "SUT",
      "unlocode": "GBSUT",
      "facility_name": "South Arne",
      "facility_city": "",
      "facility_country_iso2": "GB",
      "facility_admin1": "",
      "facility_lat": "56.06667",
      "facility_lon": "4.25",
      "distance_km": "113.06472119614371",
      "name_score": "0.5263157894736842",
      "admin_score": "0.0",
      "dist_score": "0.8115587980064272",
      "total_score": "0.5592571130861387"
    },
    {
      "doc_id": "03c5c510b5807929682655d5ef7b05264dc8a825",
      "place_name": "North Sea",
      "geonameid": "2960848",
      "hit_lat": "55.33333",
      "hit_lon": "3.0",
      "hit_country_iso2": "",
      "hit_admin1_name": "",
      "hit_admin1_code": "00",
      "feature_class": "H",
      "feature_code": "SEA",
      "candidate_reason": "by_sea_coords_600.0km",
      "hit_type": "sea",
      "rank": "78",
      "ims_facility_id": "FLN",
      "unlocode": "GBFLN",
      "facility_name": "Flaxton",
      "facility_city": "North Yorkshire",
      "facility_country_iso2": "GB",
      "facility_admin1": "NYK",
      "facility_lat": "54.03333",
      "facility_lon": "-0.95",
      "distance_km": "292.11321126929056",
      "name_score": "0.6666666666666666",
      "admin_score": "0.0",
      "dist_score": "0.5131446478845157",
      "total_score": "0.5539433943653547"
    },
    {
      "doc_id": "03c5c510b5807929682655d5ef7b05264dc8a825",
      "place_name": "North Sea",
      "geonameid": "2960848",
      "hit_lat": "55.33333",
      "hit_lon": "3.0",
      "hit_country_iso2": "",
      "hit_admin1_name": "",
      "hit_admin1_code": "00",
      "feature_class": "H",
      "feature_code": "SEA",
      "candidate_reason": "by_sea_coords_600.0km",
      "hit_type": "sea",
      "rank": "92",
      "ims_facility_id": "FLT",
      "unlocode": "GBFLT",
      "facility_name": "Farlington",
      "facility_city": "North Yorkshire",
      "facility_country_iso2": "GB",
      "facility_admin1": "NYK",
      "facility_lat": "54.1",
      "facility_lon": "-1.06667",
      "distance_km": "294.9460402353091",
      "name_score": "0.6666666666666666",
      "admin_score": "0.0",
      "dist_score": "0.5084232662744848",
      "total_score": "0.5525269798823453"
    },
    {
      "doc_id": "03c5c510b5807929682655d5ef7b05264dc8a825",
      "place_name": "North Sea",
      "geonameid": "2960848",
      "hit_lat": "55.33333",
      "hit_lon": "3.0",
      "hit_country_iso2": "",
      "hit_admin1_name": "",
      "hit_admin1_code": "00",
      "feature_class": "H",
      "feature_code": "SEA",
      "candidate_reason": "by_sea_coords_600.0km",
      "hit_type": "sea",
      "rank": "110",
      "ims_facility_id": "SGT",
      "unlocode": "GBSGT",
      "facility_name": "Stillington",
      "facility_city": "North Yorkshire",
      "facility_country_iso2": "GB",
      "facility_admin1": "NYK",
      "facility_lat": "54.10585295",
      "facility_lon": "-1.1303106943259686",
      "distance_km": "298.25376295559687",
      "name_score": "0.6666666666666666",
      "admin_score": "0.0",
      "dist_score": "0.5029103950740053",
      "total_score": "0.5508731185222016"
    },
    {
      "doc_id": "03c5c510b5807929682655d5ef7b05264dc8a825",
      "place_name": "North Sea",
      "geonameid": "2960848",
      "hit_lat": "55.33333",
      "hit_lon": "3.0",
      "hit_country_iso2": "",
      "hit_admin1_name": "",
      "hit_admin1_code": "00",
      "feature_class": "H",
      "feature_code": "SEA",
      "candidate_reason": "by_sea_coords_600.0km",
      "hit_type": "sea",
      "rank": "134",
      "ims_facility_id": "YRK",
      "unlocode": "GBYRK",
      "facility_name": "York",
      "facility_city": "North Yorkshire",
      "facility_country_iso2": "GB",
      "facility_admin1": "NYK",
      "facility_lat": "53.9590555",
      "facility_lon": "-1.0815361",
      "distance_km": "303.7617543298402",
      "name_score": "0.6666666666666666",
      "admin_score": "0.0",
      "dist_score": "0.49373040945026636",
      "total_score": "0.5481191228350799"
    },
    {
      "doc_id": "03c5c510b5807929682655d5ef7b05264dc8a825",
      "place_name": "North Sea",
      "geonameid": "2960848",
      "hit_lat": "55.33333",
      "hit_lon": "3.0",
      "hit_country_iso2": "",
      "hit_admin1_name": "",
      "hit_admin1_code": "00",
      "feature_class": "H",
      "feature_code": "SEA",
      "candidate_reason": "by_sea_coords_600.0km",
      "hit_type": "sea",
      "rank": "186",
      "ims_facility_id": "DRX",
      "unlocode": "GBDRX",
      "facility_name": "Drax",
      "facility_city": "North Yorkshire",
      "facility_country_iso2": "GB",
      "facility_admin1": "NYK",
      "facility_lat": "53.73333",
      "facility_lon": "-0.98333",
      "distance_km": "312.49584385205395",
      "name_score": "0.6666666666666666",
      "admin_score": "0.0",
      "dist_score": "0.4791735935799101",
      "total_score": "0.543752078073973"
    },
    {
      "doc_id": "03c5c510b5807929682655d5ef7b05264dc8a825",
      "place_name": "North Sea",
      "geonameid": "2960848",
      "hit_lat": "55.33333",
      "hit_lon": "3.0",
      "hit_country_iso2": "",
      "hit_admin1_name": "",
      "hit_admin1_code": "00",
      "feature_class": "H",
      "feature_code": "SEA",
      "candidate_reason": "by_sea_coords_600.0km",
      "hit_type": "sea",
      "rank": "190",
      "ims_facility_id": "SLB",
      "unlocode": "GBSLB",
      "facility_name": "Selby",
      "facility_city": "North Yorkshire",
      "facility_country_iso2": "GB",
      "facility_admin1": "NYK",
      "facility_lat": "53.78333",
      "facility_lon": "-1.06667",
      "distance_km": "313.70965724525007",
      "name_score": "0.6666666666666666",
      "admin_score": "0.0",
      "dist_score": "0.4771505712579166",
      "total_score": "0.543145171377375"
    },
    {
      "doc_id": "03c5c510b5807929682655d5ef7b05264dc8a825",
      "place_name": "North Sea",
      "geonameid": "2960848",
      "hit_lat": "55.33333",
      "hit_lon": "3.0",
      "hit_country_iso2": "",
      "hit_admin1_name": "",
      "hit_admin1_code": "00",
      "feature_class": "H",
      "feature_code": "SEA",
      "candidate_reason": "by_sea_coords_600.0km",
      "hit_type": "sea",
      "rank": "60",
      "ims_facility_id": "NRF",
      "unlocode": "GBNRF",
      "facility_name": "North Ferriby",
      "facility_city": "East Riding of Yorkshire",
      "facility_country_iso2": "GB",
      "facility_admin1": "ERY",
      "facility_lat": "53.71667",
      "facility_lon": "-0.5",
      "distance_km": "288.60792551608387",
      "name_score": "0.6363636363636364",
      "admin_score": "0.0",
      "dist_score": "0.5189867908065269",
      "total_score": "0.5375142190601399"
    },
    {
      "doc_id": "03c5c510b5807929682655d5ef7b05264dc8a825",
      "place_name": "North Sea",
      "geonameid": "2960848",
      "hit_lat": "55.33333",
      "hit_lon": "3.0",
      "hit_country_iso2": "",
      "hit_admin1_name": "",
      "hit_admin1_code": "00",
      "feature_class": "H",
      "feature_code": "SEA",
      "candidate_reason": "by_sea_coords_600.0km",
      "hit_type": "sea",
      "rank": "246",
      "ims_facility_id": "MDL",
      "unlocode": "GBMDL",
      "facility_name": "Middleham",
      "facility_city": "North Yorkshire",
      "facility_country_iso2": "GB",
      "facility_admin1": "NYK",
      "facility_lat": "54.28333",
      "facility_lon": "-1.8",
      "distance_km": "328.9274360396244",
      "name_score": "0.6666666666666666",
      "admin_score": "0.0",
      "dist_score": "0.451787606600626",
      "total_score": "0.5355362819801878"
    },
    {
      "doc_id": "03c5c510b5807929682655d5ef7b05264dc8a825",
      "place_name": "North Sea",
      "geonameid": "2960848",
      "hit_lat": "55.33333",
      "hit_lon": "3.0",
      "hit_country_iso2": "",
      "hit_admin1_name": "",
      "hit_admin1_code": "00",
      "feature_class": "H",
      "feature_code": "SEA",
      "candidate_reason": "by_sea_coords_600.0km",
      "hit_type": "sea",
      "rank": "487",
      "ims_facility_id": "NAR",
      "unlocode": "GBNAR",
      "facility_name": "Arran",
      "facility_city": "North Ayrshire",
      "facility_country_iso2": "GB",
      "facility_admin1": "NAY",
      "facility_lat": "53.0",
      "facility_lon": "-1.11667",
      "distance_km": "372.88554152336854",
      "name_score": "0.6956521739130435",
      "admin_score": "0.0",
      "dist_score": "0.3785240974610524",
      "total_score": "0.5309485335861418"
    },
    {
      "doc_id": "03c5c510b5807929682655d5ef7b05264dc8a825",
      "place_name": "Kingdom of Belgium",
      "geonameid": "2802361",
      "hit_lat": "50.75",
      "hit_lon": "4.5",
      "hit_country_iso2": "BE",
      "hit_admin1_name": "",
      "hit_admin1_code": "00",
      "feature_class": "A",
      "feature_code": "PCLI",
      "candidate_reason": "by_country",
      "hit_type": "country",
      "rank": "52",
      "ims_facility_id": "MAN",
      "unlocode": "BEMAN",
      "facility_name": "Manage",
      "facility_city": "Hainaut",
      "facility_country_iso2": "BE",
      "facility_admin1": "WHT",
      "facility_lat": "50.5",
      "facility_lon": "4.21667",
      "distance_km": "34.23776496240397",
      "name_score": "0.6060606060606061",
      "admin_score": "0.0",
      "dist_score": "0.543496467167947",
      "total_score": "0.5266853037867477"
    },
    {
      "doc_id": "03c5c510b5807929682655d5ef7b05264dc8a825",
      "place_name": "North Sea",
      "geonameid": "2960848",
      "hit_lat": "55.33333",
      "hit_lon": "3.0",
      "hit_country_iso2": "",
      "hit_admin1_name": "",
      "hit_admin1_code": "00",
      "feature_class": "H",
      "feature_code": "SEA",
      "candidate_reason": "by_sea_coords_600.0km",
      "hit_type": "sea",
      "rank": "353",
      "ims_facility_id": "NY2",
      "unlocode": "GBNY2",
      "facility_name": "Buckden",
      "facility_city": "North Yorkshire",
      "facility_country_iso2": "GB",
      "facility_admin1": "NYK",
      "facility_lat": "54.18333",
      "facility_lon": "-2.08333",
      "distance_km": "350.22812159084265",
      "name_score": "0.6666666666666666",
      "admin_score": "0.0",
      "dist_score": "0.41628646401526226",
      "total_score": "0.5248859392045786"
    },
    {
      "doc_id": "03c5c510b5807929682655d5ef7b05264dc8a825",
      "place_name": "Kingdom of Belgium",
      "geonameid": "2802361",
      "hit_lat": "50.75",
      "hit_lon": "4.5",
      "hit_country_iso2": "BE",
      "hit_admin1_name": "",
      "hit_admin1_code": "00",
      "feature_class": "A",
      "feature_code": "PCLI",
      "candidate_reason": "by_country",
      "hit_type": "country",
      "rank": "11",
      "ims_facility_id": "HFB",
      "unlocode": "BEHFB",
      "facility_name": "Halle",
      "facility_city": "Vlaams Brabant",
      "facility_country_iso2": "BE",
      "facility_admin1": "VBR",
      "facility_lat": "50.73333",
      "facility_lon": "4.23333",
      "distance_km": "18.855861179550995",
      "name_score": "0.5",
      "admin_score": "0.0",
      "dist_score": "0.7485885176059868",
      "total_score": "0.524576555281796"
    },
    {
      "doc_id": "03c5c510b5807929682655d5ef7b05264dc8a825",
      "place_name": "Kingdom of Belgium",
      "geonameid": "2802361",
      "hit_lat": "50.75",
      "hit_lon": "4.5",
      "hit_country_iso2": "BE",
      "hit_admin1_name": "",
      "hit_admin1_code": "00",
      "feature_class": "A",
      "feature_code": "PCLI",
      "candidate_reason": "by_country",
      "hit_type": "country",
      "rank": "4",
      "ims_facility_id": "BRU",
      "unlocode": "BEBRU",
      "facility_name": "Bruxelles (Brussel)",
      "facility_city": "Bruxelles-Capitale, Région de",
      "facility_country_iso2": "BE",
      "facility_admin1": "BRU",
      "facility_lat": "50.83333",
      "facility_lon": "4.33333",
      "distance_km": "14.936759458089881",
      "name_score": "0.47058823529411764",
      "admin_score": "0.0",
      "dist_score": "0.8008432072254683",
      "total_score": "0.5226059033441111"
    },
    {
      "doc_id": "03c5c510b5807929682655d5ef7b05264dc8a825",
      "place_name": "North Sea",
      "geonameid": "2960848",
      "hit_lat": "55.33333",
      "hit_lon": "3.0",
      "hit_country_iso2": "",
      "hit_admin1_name": "",
      "hit_admin1_code": "00",
      "feature_class": "H",
      "feature_code": "SEA",
      "candidate_reason": "by_sea_coords_600.0km",
      "hit_type": "sea",
      "rank": "384",
      "ims_facility_id": "HTT",
      "unlocode": "GBHTT",
      "facility_name": "Hetton",
      "facility_city": "North Yorkshire",
      "facility_country_iso2": "GB",
      "facility_admin1": "NYK",
      "facility_lat": "54.0247454",
      "facility_lon": "-2.0618758",
      "distance_km": "356.358685343912",
      "name_score": "0.6666666666666666",
      "admin_score": "0.0",
      "dist_score": "0.4060688577601467",
      "total_score": "0.521820657328044"
    },
    {
      "doc_id": "03c5c510b5807929682655d5ef7b05264dc8a825",
      "place_name": "North Sea",
      "geonameid": "2960848",
      "hit_lat": "55.33333",
      "hit_lon": "3.0",
      "hit_country_iso2": "",
      "hit_admin1_name": "",
      "hit_admin1_code": "00",
      "feature_class": "H",
      "feature_code": "SEA",
      "candidate_reason": "by_sea_coords_600.0km",
      "hit_type": "sea",
      "rank": "56",
      "ims_facility_id": "NBC",
      "unlocode": "GBNBC",
      "facility_name": "Newbiggin by the Sea",
      "facility_city": "Northumberland",
      "facility_country_iso2": "GB",
      "facility_admin1": "NBL",
      "facility_lat": "55.16667",
      "facility_lon": "-1.51667",
      "distance_km": "286.81845276659163",
      "name_score": "0.6086956521739131",
      "admin_score": "0.0",
      "dist_score": "0.5219692453890139",
      "total_score": "0.521808164921052"
    },
    {
      "doc_id": "03c5c510b5807929682655d5ef7b05264dc8a825",
      "place_name": "North Sea",
      "geonameid": "2960848",
      "hit_lat": "55.33333",
      "hit_lon": "3.0",
      "hit_country_iso2": "",
      "hit_admin1_name": "",
      "hit_admin1_code": "00",
      "feature_class": "H",
      "feature_code": "SEA",
      "candidate_reason": "by_sea_coords_600.0km",
      "hit_type": "sea",
      "rank": "57",
      "ims_facility_id": "BLY",
      "unlocode": "GBBLY",
      "facility_name": "Blyth",
      "facility_city": "Northumberland",
      "facility_country_iso2": "GB",
      "facility_admin1": "NBL",
      "facility_lat": "55.1270903",
      "facility_lon": "-1.5099726",
      "distance_km": "286.8549561831736",
      "name_score": "0.6086956521739131",
      "admin_score": "0.0",
      "dist_score": "0.5219084063613773",
      "total_score": "0.521789913212761"
    },
    {
      "doc_id": "03c5c510b5807929682655d5ef7b05264dc8a825",
      "place_name": "North Sea",
      "geonameid": "2960848",
      "hit_lat": "55.33333",
      "hit_lon": "3.0",
      "hit_country_iso2": "",
      "hit_admin1_name": "",
      "hit_admin1_code": "00",
      "feature_class": "H",
      "feature_code": "SEA",
      "candidate_reason": "by_sea_coords_600.0km",
      "hit_type": "sea",
      "rank": "94",
      "ims_facility_id": "NBS",
      "unlocode": "GBNBS",
      "facility_name": "Newton by the Sea",
      "facility_city": "Northumberland",
      "facility_country_iso2": "GB",
      "facility_admin1": "NBL",
      "facility_lat": "55.5",
      "facility_lon": "-1.66667",
      "distance_km": "295.062213263431",
      "name_score": "0.6153846153846154",
      "admin_score": "0.0",
      "dist_score": "0.5082296445609484",
      "total_score": "0.5216996625990538"
    },
    {
      "doc_id": "03c5c510b5807929682655d5ef7b05264dc8a825",
      "place_name": "North Sea",
      "geonameid": "2960848",
      "hit_lat": "55.33333",
      "hit_lon": "3.0",
      "hit_country_iso2": "",
      "hit_admin1_name": "",
      "hit_admin1_code": "00",
      "feature_class": "H",
      "feature_code": "SEA",
      "candidate_reason": "by_sea_coords_600.0km",
      "hit_type": "sea",
      "rank": "70",
      "ims_facility_id": "AMB",
      "unlocode": "GBAMB",
      "facility_name": "Amble",
      "facility_city": "Northumberland",
      "facility_country_iso2": "GB",
      "facility_admin1": "NBL",
      "facility_lat": "55.31667",
      "facility_lon": "-1.58333",
      "distance_km": "289.900115855182",
      "name_score": "0.6086956521739131",
      "admin_score": "0.0",
      "dist_score": "0.5168331402413633",
      "total_score": "0.5202673333767568"
    },
    {
      "doc_id": "03c5c510b5807929682655d5ef7b05264dc8a825",
      "place_name": "North Sea",
      "geonameid": "2960848",
      "hit_lat": "55.33333",
      "hit_lon": "3.0",
      "hit_country_iso2": "",
      "hit_admin1_name": "",
      "hit_admin1_code": "00",
      "feature_class": "H",
      "feature_code": "SEA",
      "candidate_reason": "by_sea_coords_600.0km",
      "hit_type": "sea",
      "rank": "73",
      "ims_facility_id": "WKO",
      "unlocode": "GBWKO",
      "facility_name": "Warkworth",
      "facility_city": "Northumberland",
      "facility_country_iso2": "GB",
      "facility_admin1": "NBL",
      "facility_lat": "55.35",
      "facility_lon": "-1.6",
      "distance_km": "290.83173225607044",
      "name_score": "0.6086956521739131",
      "admin_score": "0.0",
      "dist_score": "0.5152804462398826",
      "total_score": "0.5198015251763126"
    },
    {
      "doc_id": "03c5c510b5807929682655d5ef7b05264dc8a825",
      "place_name": "North Sea",
      "geonameid": "2960848",
      "hit_lat": "55.33333",
      "hit_lon": "3.0",
      "hit_country_iso2": "",
      "hit_admin1_name": "",
      "hit_admin1_code": "00",
      "feature_class": "H",
      "feature_code": "SEA",
      "candidate_reason": "by_sea_coords_600.0km",
      "hit_type": "sea",
      "rank": "76",
      "ims_facility_id": "ALM",
      "unlocode": "GBALM",
      "facility_name": "Alnmouth",
      "facility_city": "Northumberland",
      "facility_country_iso2": "GB",
      "facility_admin1": "NBL",
      "facility_lat": "55.38333",
      "facility_lon": "-1.61667",
      "distance_km": "291.8094466091602",
      "name_score": "0.6086956521739131",
      "admin_score": "0.0",
      "dist_score": "0.5136509223180663",
      "total_score": "0.5193126679997677"
    },
    {
      "doc_id": "03c5c510b5807929682655d5ef7b05264dc8a825",
      "place_name": "Kingdom of the Netherlands",
      "geonameid": "2750405",
      "hit_lat": "52.25",
      "hit_lon": "5.75",
      "hit_country_iso2": "NL",
      "hit_admin1_name": "",
      "hit_admin1_code": "00",
      "feature_class": "A",
      "feature_code": "PCLI",
      "candidate_reason": "by_country",
      "hit_type": "country",
      "rank": "37",
      "ims_facility_id": "AER",
      "unlocode": "NLAER",
      "facility_name": "Almere",
      "facility_city": "Flevoland",
      "facility_country_iso2": "NL",
      "facility_admin1": "FL",
      "facility_lat": "52.36667",
      "facility_lon": "5.21667",
      "distance_km": "38.509770568414616",
      "name_score": "0.6222222222222222",
      "admin_score": "0.0",
      "dist_score": "0.48653639242113844",
      "total_score": "0.5192942510596749"
    },
    {
      "doc_id": "03c5c510b5807929682655d5ef7b05264dc8a825",
      "place_name": "North Sea",
      "geonameid": "2960848",
      "hit_lat": "55.33333",
      "hit_lon": "3.0",
      "hit_country_iso2": "",
      "hit_admin1_name": "",
      "hit_admin1_code": "00",
      "feature_class": "H",
      "feature_code": "SEA",
      "candidate_reason": "by_sea_coords_600.0km",
      "hit_type": "sea",
      "rank": "84",
      "ims_facility_id": "BQX",
      "unlocode": "GBBQX",
      "facility_name": "Beadnell",
      "facility_city": "Northumberland",
      "facility_country_iso2": "GB",
      "facility_admin1": "NBL",
      "facility_lat": "55.55",
      "facility_lon": "-1.63333",
      "distance_km": "293.1825189888648",
      "name_score": "0.6086956521739131",
      "admin_score": "0.0",
      "dist_score": "0.511362468351892",
      "total_score": "0.5186261318099155"
    },
    {
      "doc_id": "03c5c510b5807929682655d5ef7b05264dc8a825",
      "place_name": "North Sea",
      "geonameid": "2960848",
      "hit_lat": "55.33333",
      "hit_lon": "3.0",
      "hit_country_iso2": "",
      "hit_admin1_name": "",
      "hit_admin1_code": "00",
      "feature_class": "H",
      "feature_code": "SEA",
      "candidate_reason": "by_sea_coords_600.0km",
      "hit_type": "sea",
      "rank": "98",
      "ims_facility_id": "SHU",
      "unlocode": "GBSHU",
      "facility_name": "Seahouses",
      "facility_city": "Northumberland",
      "facility_country_iso2": "GB",
      "facility_admin1": "NBL",
      "facility_lat": "55.58333",
      "facility_lon": "-1.66667",
      "distance_km": "295.4784809096593",
      "name_score": "0.6086956521739131",
      "admin_score": "0.0",
      "dist_score": "0.5075358651505678",
      "total_score": "0.5174781508495182"
    },
    {
      "doc_id": "03c5c510b5807929682655d5ef7b05264dc8a825",
      "place_name": "Red Sea",
      "geonameid": "408646",
      "hit_lat": "19.96667",
      "hit_lon": "35.66667",
      "hit_country_iso2": "SD",
      "hit_admin1_name": "Red Sea",
      "hit_admin1_code": "36",
      "feature_class": "A",
      "feature_code": "ADM1",
      "candidate_reason": "by_country",
      "hit_type": "sea",
      "rank": "1",
      "ims_facility_id": "PZU",
      "unlocode": "SDPZU",
      "facility_name": "Port Sudan",
      "facility_city": "Al Baḩr al Aḩmar",
      "facility_country_iso2": "SD",
      "facility_admin1": "RS",
      "facility_lat": "19.619217",
      "facility_lon": "37.211709",
      "distance_km": "166.202891793908",
      "name_score": "0.5",
      "admin_score": "0.0",
      "dist_score": "0.7229951803434866",
      "total_score": "0.516898554103046"
    },
    {
      "doc_id": "03c5c510b5807929682655d5ef7b05264dc8a825",
      "place_name": "Kingdom of the Netherlands",
      "geonameid": "2750405",
      "hit_lat": "52.25",
      "hit_lon": "5.75",
      "hit_country_iso2": "NL",
      "hit_admin1_name": "",
      "hit_admin1_code": "00",
      "feature_class": "A",
      "feature_code": "PCLI",
      "candidate_reason": "by_country",
      "hit_type": "country",
      "rank": "2",
      "ims_facility_id": "HSK",
      "unlocode": "NLHSK",
      "facility_name": "Harskamp",
      "facility_city": "Gelderland",
      "facility_country_iso2": "NL",
      "facility_admin1": "GE",
      "facility_lat": "52.13333",
      "facility_lon": "5.75",
      "distance_km": "12.973112091620575",
      "name_score": "0.4444444444444444",
      "admin_score": "0.0",
      "dist_score": "0.8270251721117257",
      "total_score": "0.5147742183001843"
    },
    {
      "doc_id": "03c5c510b5807929682655d5ef7b05264dc8a825",
      "place_name": "Baltic Sea",
      "geonameid": "2633321",
      "hit_lat": "56.0",
      "hit_lon": "18.0",
      "hit_country_iso2": "",
      "hit_admin1_name": "",
      "hit_admin1_code": "00",
      "feature_class": "H",
      "feature_code": "SEA",
      "candidate_reason": "by_sea_coords_600.0km",
      "hit_type": "sea",
      "rank": "5",
      "ims_facility_id": "KLR",
      "unlocode": "SEKLR",
      "facility_name": "Kalmar",
      "facility_city": "Kalmar län",
      "facility_country_iso2": "SE",
      "facility_admin1": "H",
      "facility_lat": "56.66667",
      "facility_lon": "16.36667",
      "distance_km": "125.02307407701312",
      "name_score": "0.46153846153846156",
      "admin_score": "0.0",
      "dist_score": "0.7916282098716448",
      "total_score": "0.5144115398845703"
    },
    {
      "doc_id": "03c5c510b5807929682655d5ef7b05264dc8a825",
      "place_name": "North Sea",
      "geonameid": "2960848",
      "hit_lat": "55.33333",
      "hit_lon": "3.0",
      "hit_country_iso2": "",
      "hit_admin1_name": "",
      "hit_admin1_code": "00",
      "feature_class": "H",
      "feature_code": "SEA",
      "candidate_reason": "by_sea_coords_600.0km",
      "hit_type": "sea",
      "rank": "39",
      "ims_facility_id": "NHO",
      "unlocode": "GBNHO",
      "facility_name": "New Holland",
      "facility_city": "North Lincolnshire",
      "facility_country_iso2": "GB",
      "facility_admin1": "NLN",
      "facility_lat": "53.7",
      "facility_lon": "-0.36667",
      "distance_km": "283.1499449286286",
      "name_score": "0.5925925925925926",
      "admin_score": "0.0",
      "dist_score": "0.5280834251189523",
      "total_score": "0.5139805830912412"
    },
    {
      "doc_id": "03c5c510b5807929682655d5ef7b05264dc8a825",
      "place_name": "North Sea",
      "geonameid": "2960848",
      "hit_lat": "55.33333",
      "hit_lon": "3.0",
      "hit_country_iso2": "",
      "hit_admin1_name": "",
      "hit_admin1_code": "00",
      "feature_class": "H",
      "feature_code": "SEA",
      "candidate_reason": "by_sea_coords_600.0km",
      "hit_type": "sea",
      "rank": "139",
      "ims_facility_id": "HYI",
      "unlocode": "GBHYI",
      "facility_name": "Holy Island",
      "facility_city": "Northumberland",
      "facility_country_iso2": "GB",
      "facility_admin1": "NBL",
      "facility_lat": "55.66667",
      "facility_lon": "-1.8",
      "distance_km": "304.5122791347283",
      "name_score": "0.6086956521739131",
      "admin_score": "0.0",
      "dist_score": "0.4924795347754528",
      "total_score": "0.5129612517369837"
    },
    {
      "doc_id": "03c5c510b5807929682655d5ef7b05264dc8a825",
      "place_name": "North Sea",
      "geonameid": "2960848",
      "hit_lat": "55.33333",
      "hit_lon": "3.0",
      "hit_country_iso2": "",
      "hit_admin1_name": "",
      "hit_admin1_code": "00",
      "feature_class": "H",
      "feature_code": "SEA",
      "candidate_reason": "by_sea_coords_600.0km",
      "hit_type": "sea",
      "rank": "48",
      "ims_facility_id": "BHR",
      "unlocode": "GBBHR",
      "facility_name": "Barrow-upon-Humber",
      "facility_city": "North Lincolnshire",
      "facility_country_iso2": "GB",
      "facility_admin1": "NLN",
      "facility_lat": "53.68333",
      "facility_lon": "-0.38333",
      "distance_km": "285.19770390439015",
      "name_score": "0.5925925925925926",
      "admin_score": "0.0",
      "dist_score": "0.5246704934926831",
      "total_score": "0.5129567036033604"
    },
    {
      "doc_id": "03c5c510b5807929682655d5ef7b05264dc8a825",
      "place_name": "North Sea",
      "geonameid": "2960848",
      "hit_lat": "55.33333",
      "hit_lon": "3.0",
      "hit_country_iso2": "",
      "hit_admin1_name": "",
      "hit_admin1_code": "00",
      "feature_class": "H",
      "feature_code": "SEA",
      "candidate_reason": "by_sea_coords_600.0km",
      "hit_type": "sea",
      "rank": "63",
      "ims_facility_id": "BNH",
      "unlocode": "GBBNH",
      "facility_name": "Barton upon Humber",
      "facility_city": "North Lincolnshire",
      "facility_country_iso2": "GB",
      "facility_admin1": "NLN",
      "facility_lat": "53.66667",
      "facility_lon": "-0.43333",
      "distance_km": "288.89402641055307",
      "name_score": "0.5925925925925926",
      "admin_score": "0.0",
      "dist_score": "0.5185099559824116",
      "total_score": "0.511108542350279"
    },
    {
      "doc_id": "03c5c510b5807929682655d5ef7b05264dc8a825",
      "place_name": "North Sea",
      "geonameid": "2960848",
      "hit_lat": "55.33333",
      "hit_lon": "3.0",
      "hit_country_iso2": "",
      "hit_admin1_name": "",
      "hit_admin1_code": "00",
      "feature_class": "H",
      "feature_code": "SEA",
      "candidate_reason": "by_sea_coords_600.0km",
      "hit_type": "sea",
      "rank": "87",
      "ims_facility_id": "ELS",
      "unlocode": "GBELS",
      "facility_name": "Elsham",
      "facility_city": "North Lincolnshire",
      "facility_country_iso2": "GB",
      "facility_admin1": "NLN",
      "facility_lat": "53.6",
      "facility_lon": "-0.43333",
      "distance_km": "293.8379053538337",
      "name_score": "0.5925925925925926",
      "admin_score": "0.0",
      "dist_score": "0.5102701577436104",
      "total_score": "0.5086366028786387"
    },
    {
      "doc_id": "03c5c510b5807929682655d5ef7b05264dc8a825",
      "place_name": "Baltic Sea",
      "geonameid": "2633321",
      "hit_lat": "56.0",
      "hit_lon": "18.0",
      "hit_country_iso2": "",
      "hit_admin1_name": "",
      "hit_admin1_code": "00",
      "feature_class": "H",
      "feature_code": "SEA",
      "candidate_reason": "by_sea_coords_600.0km",
      "hit_type": "sea",
      "rank": "34",
      "ims_facility_id": "GDN",
      "unlocode": "PLGDN",
      "facility_name": "Gdansk",
      "facility_city": "",
      "facility_country_iso2": "PL",
      "facility_admin1": "",
      "facility_lat": "54.3706858",
      "facility_lon": "18.61298210330077",
      "distance_km": "185.30162236363262",
      "name_score": "0.5",
      "admin_score": "0.0",
      "dist_score": "0.691163962727279",
      "total_score": "0.5073491888181837"
    },
    {
      "doc_id": "03c5c510b5807929682655d5ef7b05264dc8a825",
      "place_name": "Kingdom of Belgium",
      "geonameid": "2802361",
      "hit_lat": "50.75",
      "hit_lon": "4.5",
      "hit_country_iso2": "BE",
      "hit_admin1_name": "",
      "hit_admin1_code": "00",
      "feature_class": "A",
      "feature_code": "PCLI",
      "candidate_reason": "by_country",
      "hit_type": "country",
      "rank": "12",
      "ims_facility_id": "ITR",
      "unlocode": "BEITR",
      "facility_name": "Ittre (Itter)",
      "facility_city": "Brabant wallon",
      "facility_country_iso2": "BE",
      "facility_admin1": "WBR",
      "facility_lat": "50.65",
      "facility_lon": "4.26667",
      "distance_km": "19.841636448180704",
      "name_score": "0.47619047619047616",
      "admin_score": "0.0",
      "dist_score": "0.7354448473575905",
      "total_score": "0.5063477399215628"
    },
    {
      "doc_id": "03c5c510b5807929682655d5ef7b05264dc8a825",
      "place_name": "North Sea",
      "geonameid": "2960848",
      "hit_lat": "55.33333",
      "hit_lon": "3.0",
      "hit_country_iso2": "",
      "hit_admin1_name": "",
      "hit_admin1_code": "00",
      "feature_class": "H",
      "feature_code": "SEA",
      "candidate_reason": "by_sea_coords_600.0km",
      "hit_type": "sea",
      "rank": "204",
      "ims_facility_id": "BWK",
      "unlocode": "GBBWK",
      "facility_name": "Berwick-upon-Tweed",
      "facility_city": "Northumberland",
      "facility_country_iso2": "GB",
      "facility_admin1": "NBL",
      "facility_lat": "55.78333",
      "facility_lon": "-2.0",
      "distance_km": "318.32437381508123",
      "name_score": "0.6086956521739131",
      "admin_score": "0.0",
      "dist_score": "0.4694593769748646",
      "total_score": "0.5060552043968072"
    },
    {
      "doc_id": "03c5c510b5807929682655d5ef7b05264dc8a825",
      "place_name": "North Sea",
      "geonameid": "2960848",
      "hit_lat": "55.33333",
      "hit_lon": "3.0",
      "hit_country_iso2": "",
      "hit_admin1_name": "",
      "hit_admin1_code": "00",
      "feature_class": "H",
      "feature_code": "SEA",
      "candidate_reason": "by_sea_coords_600.0km",
      "hit_type": "sea",
      "rank": "128",
      "ims_facility_id": "BUS",
      "unlocode": "GBBUS",
      "facility_name": "Burton upon Stather",
      "facility_city": "North Lincolnshire",
      "facility_country_iso2": "GB",
      "facility_admin1": "NLN",
      "facility_lat": "53.65",
      "facility_lon": "-0.68333",
      "distance_km": "302.62867090221044",
      "name_score": "0.5925925925925926",
      "admin_score": "0.0",
      "dist_score": "0.4956188818296493",
      "total_score": "0.5042412201044503"
    },
    {
      "doc_id": "03c5c510b5807929682655d5ef7b05264dc8a825",
      "place_name": "North Sea",
      "geonameid": "2960848",
      "hit_lat": "55.33333",
      "hit_lon": "3.0",
      "hit_country_iso2": "",
      "hit_admin1_name": "",
      "hit_admin1_code": "00",
      "feature_class": "H",
      "feature_code": "SEA",
      "candidate_reason": "by_sea_coords_600.0km",
      "hit_type": "sea",
      "rank": "142",
      "ims_facility_id": "FLW",
      "unlocode": "GBFLW",
      "facility_name": "Flixborough",
      "facility_city": "North Lincolnshire",
      "facility_country_iso2": "GB",
      "facility_admin1": "NLN",
      "facility_lat": "53.61667",
      "facility_lon": "-0.68333",
      "distance_km": "305.0086522422672",
      "name_score": "0.5925925925925926",
      "admin_score": "0.0",
      "dist_score": "0.49165224626288795",
      "total_score": "0.5030512294344219"
    },
    {
      "doc_id": "03c5c510b5807929682655d5ef7b05264dc8a825",
      "place_name": "North Sea",
      "geonameid": "2960848",
      "hit_lat": "55.33333",
      "hit_lon": "3.0",
      "hit_country_iso2": "",
      "hit_admin1_name": "",
      "hit_admin1_code": "00",
      "feature_class": "H",
      "feature_code": "SEA",
      "candidate_reason": "by_sea_coords_600.0km",
      "hit_type": "sea",
      "rank": "145",
      "ims_facility_id": "SCP",
      "unlocode": "GBSCP",
      "facility_name": "Scunthorpe",
      "facility_city": "North Lincolnshire",
      "facility_country_iso2": "GB",
      "facility_admin1": "NLN",
      "facility_lat": "53.58333",
      "facility_lon": "-0.65",
      "distance_km": "305.75183118059556",
      "name_score": "0.5925925925925926",
      "admin_score": "0.0",
      "dist_score": "0.49041361469900735",
      "total_score": "0.5026796399652578"
    },
    {
      "doc_id": "03c5c510b5807929682655d5ef7b05264dc8a825",
      "place_name": "North Sea",
      "geonameid": "2960848",
      "hit_lat": "55.33333",
      "hit_lon": "3.0",
      "hit_country_iso2": "",
      "hit_admin1_name": "",
      "hit_admin1_code": "00",
      "feature_class": "H",
      "feature_code": "SEA",
      "candidate_reason": "by_sea_coords_600.0km",
      "hit_type": "sea",
      "rank": "149",
      "ims_facility_id": "NEH",
      "unlocode": "GBNEH",
      "facility_name": "Neap House",
      "facility_city": "North Lincolnshire",
      "facility_country_iso2": "GB",
      "facility_admin1": "NLN",
      "facility_lat": "53.6083051",
      "facility_lon": "-0.699839",
      "distance_km": "306.44081281466345",
      "name_score": "0.5925925925925926",
      "admin_score": "0.0",
      "dist_score": "0.4892653119755609",
      "total_score": "0.5023351491482237"
    },
    {
      "doc_id": "03c5c510b5807929682655d5ef7b05264dc8a825",
      "place_name": "North Sea",
      "geonameid": "2960848",
      "hit_lat": "55.33333",
      "hit_lon": "3.0",
      "hit_country_iso2": "",
      "hit_admin1_name": "",
      "hit_admin1_code": "00",
      "feature_class": "H",
      "feature_code": "SEA",
      "candidate_reason": "by_sea_coords_600.0km",
      "hit_type": "sea",
      "rank": "165",
      "ims_facility_id": "KEA",
      "unlocode": "GBKEA",
      "facility_name": "Keadby",
      "facility_city": "North Lincolnshire",
      "facility_country_iso2": "GB",
      "facility_admin1": "NLN",
      "facility_lat": "53.6",
      "facility_lon": "-0.73333",
      "distance_km": "308.724860770978",
      "name_score": "0.5925925925925926",
      "admin_score": "0.0",
      "dist_score": "0.4854585653817033",
      "total_score": "0.5011931251700665"
    },
    {
      "doc_id": "03c5c510b5807929682655d5ef7b05264dc8a825",
      "place_name": "North Sea",
      "geonameid": "2960848",
      "hit_lat": "55.33333",
      "hit_lon": "3.0",
      "hit_country_iso2": "",
      "hit_admin1_name": "",
      "hit_admin1_code": "00",
      "feature_class": "H",
      "feature_code": "SEA",
      "candidate_reason": "by_sea_coords_600.0km",
      "hit_type": "sea",
      "rank": "170",
      "ims_facility_id": "GUW",
      "unlocode": "GBGUW",
      "facility_name": "Gunness Wharf",
      "facility_city": "North Lincolnshire",
      "facility_country_iso2": "GB",
      "facility_admin1": "NLN",
      "facility_lat": "53.5875331",
      "facility_lon": "-0.730671",
      "distance_km": "309.4863415650685",
      "name_score": "0.5925925925925926",
      "admin_score": "0.0",
      "dist_score": "0.48418943072488574",
      "total_score": "0.5008123847730213"
    },
    {
      "doc_id": "03c5c510b5807929682655d5ef7b05264dc8a825",
      "place_name": "North Sea",
      "geonameid": "2960848",
      "hit_lat": "55.33333",
      "hit_lon": "3.0",
      "hit_country_iso2": "",
      "hit_admin1_name": "",
      "hit_admin1_code": "00",
      "feature_class": "H",
      "feature_code": "SEA",
      "candidate_reason": "by_sea_coords_600.0km",
      "hit_type": "sea",
      "rank": "173",
      "ims_facility_id": "ALP",
      "unlocode": "GBALP",
      "facility_name": "Althorpe",
      "facility_city": "North Lincolnshire",
      "facility_country_iso2": "GB",
      "facility_admin1": "NLN",
      "facility_lat": "53.58333",
      "facility_lon": "-0.73333",
      "distance_km": "309.9227716072266",
      "name_score": "0.5925925925925926",
      "admin_score": "0.0",
      "dist_score": "0.48346204732128906",
      "total_score": "0.5005941697519423"
    }
  ],
  "03f72fe6528f5420c4e6e5a29b397925841f27cb": [
    {
      "doc_id": "03f72fe6528f5420c4e6e5a29b397925841f27cb",
      "place_name": "Ust’-Luga",
      "geonameid": "478036",
      "hit_lat": "59.66755",
      "hit_lon": "28.28713",
      "hit_country_iso2": "RU",
      "hit_admin1_name": "Leningradskaya Oblast'",
      "hit_admin1_code": "42",
      "feature_class": "P",
      "feature_code": "PPL",
      "candidate_reason": "by_country",
      "hit_type": "normal",
      "rank": "1",
      "ims_facility_id": "ULU",
      "unlocode": "RUULU",
      "facility_name": "Ust'-Luga",
      "facility_city": "Leningradskaya oblast'",
      "facility_country_iso2": "RU",
      "facility_admin1": "LEN",
      "facility_lat": "59.66667",
      "facility_lon": "28.31667",
      "distance_km": "1.6617321360183026",
      "name_score": "1.0",
      "admin_score": "1.0",
      "dist_score": "0.977843571519756",
      "total_score": "0.9933530714559268"
    },
    {
      "doc_id": "03f72fe6528f5420c4e6e5a29b397925841f27cb",
      "place_name": "Dakar",
      "geonameid": "2253354",
      "hit_lat": "14.6937",
      "hit_lon": "-17.44406",
      "hit_country_iso2": "SN",
      "hit_admin1_name": "Dakar",
      "hit_admin1_code": "01",
      "feature_class": "P",
      "feature_code": "PPLC",
      "candidate_reason": "by_country",
      "hit_type": "normal",
      "rank": "1",
      "ims_facility_id": "DKR",
      "unlocode": "SNDKR",
      "facility_name": "Dakar",
      "facility_city": "",
      "facility_country_iso2": "SN",
      "facility_admin1": "",
      "facility_lat": "14.693425",
      "facility_lon": "-17.447938",
      "distance_km": "0.41823097884096777",
      "name_score": "1.0",
      "admin_score": "0.0",
      "dist_score": "0.9944235869487871",
      "total_score": "0.898327076084636"
    },
    {
      "doc_id": "03f72fe6528f5420c4e6e5a29b397925841f27cb",
      "place_name": "Tuapse",
      "geonameid": "480716",
      "hit_lat": "44.10083",
      "hit_lon": "39.08326",
      "hit_country_iso2": "RU",
      "hit_admin1_name": "Krasnodar Krai",
      "hit_admin1_code": "38",
      "feature_class": "P",
      "feature_code": "PPLA2",
      "candidate_reason": "by_country",
      "hit_type": "normal",
      "rank": "1",
      "ims_facility_id": "TUA",
      "unlocode": "RUTUA",
      "facility_name": "Tuapse",
      "facility_city": "",
      "facility_country_iso2": "RU",
      "facility_admin1": "",
      "facility_lat": "44.0984747",
      "facility_lon": "39.0718875",
      "distance_km": "0.9451329114781468",
      "name_score": "1.0",
      "admin_score": "0.0",
      "dist_score": "0.9873982278469581",
      "total_score": "0.8962194683540874"
    },
    {
      "doc_id": "03f72fe6528f5420c4e6e5a29b397925841f27cb",
      "place_name": "Novorossiysk",
      "geonameid": "518255",
      "hit_lat": "44.73188",
      "hit_lon": "37.76176",
      "hit_country_iso2": "RU",
      "hit_admin1_name": "Krasnodar Krai",
      "hit_admin1_code": "38",
      "feature_class": "P",
      "feature_code": "PPLA2",
      "candidate_reason": "by_country",
      "hit_type": "normal",
      "rank": "1",
      "ims_facility_id": "NVS",
      "unlocode": "RUNVS",
      "facility_name": "Novorossiysk",
      "facility_city": "Krasnodarskiy kray",
      "facility_country_iso2": "RU",
      "facility_admin1": "KDA",
      "facility_lat": "44.71667",
      "facility_lon": "37.76667",
      "distance_km": "1.7351901983115687",
      "name_score": "1.0",
      "admin_score": "0.0",
      "dist_score": "0.9768641306891791",
      "total_score": "0.8930592392067537"
    },
    {
      "doc_id": "03f72fe6528f5420c4e6e5a29b397925841f27cb",
      "place_name": "Daman",
      "geonameid": "1273618",
      "hit_lat": "20.41431",
      "hit_lon": "72.83236",
      "hit_country_iso2": "IN",
      "hit_admin1_name": "Dadra and Nagar Haveli and Daman and Diu",
      "hit_admin1_code": "52",
      "feature_class": "P",
      "feature_code": "PPLA",
      "candidate_reason": "by_country",
      "hit_type": "normal",
      "rank": "1",
      "ims_facility_id": "DAM",
      "unlocode": "INDAM",
      "facility_name": "Daman",
      "facility_city": "Daman and Diu",
      "facility_country_iso2": "IN",
      "facility_admin1": "DD",
      "facility_lat": "20.42000485",
      "facility_lon": "72.86376290300566",
      "distance_km": "3.333181532381491",
      "name_score": "1.0",
      "admin_score": "0.0",
      "dist_score": "0.9555575795682468",
      "total_score": "0.886667273870474"
    },
    {
      "doc_id": "03f72fe6528f5420c4e6e5a29b397925841f27cb",
      "place_name": "Port of Los Angeles",
      "geonameid": "5384364",
      "hit_lat": "33.72919",
      "hit_lon": "-118.26202",
      "hit_country_iso2": "US",
      "hit_admin1_name": "California",
      "hit_admin1_code": "CA",
      "feature_class": "H",
      "feature_code": "HBR",
      "candidate_reason": "by_country",
      "hit_type": "normal",
      "rank": "1",
      "ims_facility_id": "LAX",
      "unlocode": "USLAX",
      "facility_name": "Los Angeles",
      "facility_city": "California",
      "facility_country_iso2": "US",
      "facility_admin1": "CA",
      "facility_lat": "34.05",
      "facility_lon": "-118.25",
      "distance_km": "35.689694189197404",
      "name_score": "1.0",
      "admin_score": "1.0",
      "dist_score": "0.5241374108107013",
      "total_score": "0.8572412232432104"
    },
    {
      "doc_id": "03f72fe6528f5420c4e6e5a29b397925841f27cb",
      "place_name": "Port of Los Angeles",
      "geonameid": "5384364",
      "hit_lat": "33.72919",
      "hit_lon": "-118.26202",
      "hit_country_iso2": "US",
      "hit_admin1_name": "California",
      "hit_admin1_code": "CA",
      "feature_class": "H",
      "feature_code": "HBR",
      "candidate_reason": "by_country",
      "hit_type": "normal",
      "rank": "2",
      "ims_facility_id": "LGB",
      "unlocode": "USLGB",
      "facility_name": "Long Beach",
      "facility_city": "California",
      "facility_country_iso2": "US",
      "facility_admin1": "CA",
      "facility_lat": "33.76667",
      "facility_lon": "-118.18333",
      "distance_km": "8.384587571577997",
      "name_score": "0.7027027027027027",
      "admin_score": "1.0",
      "dist_score": "0.8882054990456267",
      "total_score": "0.7880832713353096"
    },
    {
      "doc_id": "03f72fe6528f5420c4e6e5a29b397925841f27cb",
      "place_name": "Port of Los Angeles",
      "geonameid": "5384364",
      "hit_lat": "33.72919",
      "hit_lon": "-118.26202",
      "hit_country_iso2": "US",
      "hit_admin1_name": "California",
      "hit_admin1_code": "CA",
      "feature_class": "H",
      "feature_code": "HBR",
      "candidate_reason": "by_country",
      "hit_type": "normal",
      "rank": "3",
      "ims_facility_id": "WTN",
      "unlocode": "USWTN",
      "facility_name": "Wilmington",
      "facility_city": "California",
      "facility_country_iso2": "US",
      "facility_admin1": "CA",
      "facility_lat": "33.76667",
      "facility_lon": "-118.26667",
      "distance_km": "4.1897027451065165",
      "name_score": "0.6190476190476191",
      "admin_score": "1.0",
      "dist_score": "0.9441372967319132",
      "total_score": "0.7546697604481454"
    },
    {
      "doc_id": "03f72fe6528f5420c4e6e5a29b397925841f27cb",
      "place_name": "Primorsk",
      "geonameid": "505269",
      "hit_lat": "60.36622",
      "hit_lon": "28.60615",
      "hit_country_iso2": "RU",
      "hit_admin1_name": "Leningradskaya Oblast'",
      "hit_admin1_code": "42",
      "feature_class": "P",
      "feature_code": "PPL",
      "candidate_reason": "by_country",
      "hit_type": "normal",
      "rank": "1",
      "ims_facility_id": "PRI",
      "unlocode": "RUPRI",
      "facility_name": "Primorsk (Koivisto)",
      "facility_city": "",
      "facility_country_iso2": "RU",
      "facility_admin1": "",
      "facility_lat": "60.366665",
      "facility_lon": "28.616673",
      "distance_km": "0.580671366464615",
      "name_score": "0.6666666666666666",
      "admin_score": "0.0",
      "dist_score": "0.9922577151138051",
      "total_score": "0.6976773145341415"
    },
    {
      "doc_id": "03f72fe6528f5420c4e6e5a29b397925841f27cb",
      "place_name": "Baltic Sea",
      "geonameid": "2633321",
      "hit_lat": "56.0",
      "hit_lon": "18.0",
      "hit_country_iso2": "",
      "hit_admin1_name": "",
      "hit_admin1_code": "00",
      "feature_class": "H",
      "feature_code": "SEA",
      "candidate_reason": "by_sea_coords_600.0km",
      "hit_type": "sea",
      "rank": "38",
      "ims_facility_id": "BLT",
      "unlocode": "RUBLT",
      "facility_name": "Baltiysk",
      "facility_city": "",
      "facility_country_iso2": "RU",
      "facility_admin1": "",
      "facility_lat": "54.6437214",
      "facility_lon": "19.8941584",
      "distance_km": "192.61091725440977",
      "name_score": "0.6666666666666666",
      "admin_score": "0.0",
      "dist_score": "0.6789818045759837",
      "total_score": "0.6036945413727951"
    },
    {
      "doc_id": "03f72fe6528f5420c4e6e5a29b397925841f27cb",
      "place_name": "Port of Los Angeles",
      "geonameid": "5384364",
      "hit_lat": "33.72919",
      "hit_lon": "-118.26202",
      "hit_country_iso2": "US",
      "hit_admin1_name": "California",
      "hit_admin1_code": "CA",
      "feature_class": "H",
      "feature_code": "HBR",
      "candidate_reason": "by_country",
      "hit_type": "normal",
      "rank": "4",
      "ims_facility_id": "LAT",
      "unlocode": "USLAT",
      "facility_name": "Los Alamitos",
      "facility_city": "California",
      "facility_country_iso2": "US",
      "facility_admin1": "CA",
      "facility_lat": "33.8",
      "facility_lon": "-118.06667",
      "distance_km": "19.699956752516652",
      "name_score": "0.45161290322580644",
      "admin_score": "1.0",
      "dist_score": "0.7373339099664447",
      "total_score": "0.5921679149254172"
    },
    {
      "doc_id": "03f72fe6528f5420c4e6e5a29b397925841f27cb",
      "place_name": "Port of Los Angeles",
      "geonameid": "5384364",
      "hit_lat": "33.72919",
      "hit_lon": "-118.26202",
      "hit_country_iso2": "US",
      "hit_admin1_name": "California",
      "hit_admin1_code": "CA",
      "feature_class": "H",
      "feature_code": "HBR",
      "candidate_reason": "by_country",
      "hit_type": "normal",
      "rank": "5",
      "ims_facility_id": "JNP",
      "unlocode": "USJNP",
      "facility_name": "Newport Beach",
      "facility_city": "California",
      "facility_country_iso2": "US",
      "facility_admin1": "CA",
      "facility_lat": "33.61667",
      "facility_lon": "-117.91667",
      "distance_km": "34.319938442289356",
      "name_score": "0.47619047619047616",
      "admin_score": "1.0",
      "dist_score": "0.5424008207694753",
      "total_score": "0.5484345319451283"
    },
    {
      "doc_id": "03f72fe6528f5420c4e6e5a29b397925841f27cb",
      "place_name": "Daman",
      "geonameid": "1273618",
      "hit_lat": "20.41431",
      "hit_lon": "72.83236",
      "hit_country_iso2": "IN",
      "hit_admin1_name": "Dadra and Nagar Haveli and Daman and Diu",
      "hit_admin1_code": "52",
      "feature_class": "P",
      "feature_code": "PPLA",
      "candidate_reason": "by_country",
      "hit_type": "normal",
      "rank": "2",
      "ims_facility_id": "DHU",
      "unlocode": "INDHU",
      "facility_name": "Dahanu",
      "facility_city": "Maharashtra",
      "facility_country_iso2": "IN",
      "facility_admin1": "MH",
      "facility_lat": "19.9887244",
      "facility_lon": "72.733848",
      "distance_km": "48.426687041557685",
      "name_score": "0.7272727272727273",
      "admin_score": "0.0",
      "dist_score": "0.3543108394458976",
      "total_score": "0.5426568881974057"
    },
    {
      "doc_id": "03f72fe6528f5420c4e6e5a29b397925841f27cb",
      "place_name": "Baltic Sea",
      "geonameid": "2633321",
      "hit_lat": "56.0",
      "hit_lon": "18.0",
      "hit_country_iso2": "",
      "hit_admin1_name": "",
      "hit_admin1_code": "00",
      "feature_class": "H",
      "feature_code": "SEA",
      "candidate_reason": "by_sea_coords_600.0km",
      "hit_type": "sea",
      "rank": "5",
      "ims_facility_id": "KLR",
      "unlocode": "SEKLR",
      "facility_name": "Kalmar",
      "facility_city": "Kalmar län",
      "facility_country_iso2": "SE",
      "facility_admin1": "H",
      "facility_lat": "56.66667",
      "facility_lon": "16.36667",
      "distance_km": "125.02307407701312",
      "name_score": "0.46153846153846156",
      "admin_score": "0.0",
      "dist_score": "0.7916282098716448",
      "total_score": "0.5144115398845703"
    },
    {
      "doc_id": "03f72fe6528f5420c4e6e5a29b397925841f27cb",
      "place_name": "Baltic Sea",
      "geonameid": "2633321",
      "hit_lat": "56.0",
      "hit_lon": "18.0",
      "hit_country_iso2": "",
      "hit_admin1_name": "",
      "hit_admin1_code": "00",
      "feature_class": "H",
      "feature_code": "SEA",
      "candidate_reason": "by_sea_coords_600.0km",
      "hit_type": "sea",
      "rank": "34",
      "ims_facility_id": "GDN",
      "unlocode": "PLGDN",
      "facility_name": "Gdansk",
      "facility_city": "",
      "facility_country_iso2": "PL",
      "facility_admin1": "",
      "facility_lat": "54.3706858",
      "facility_lon": "18.61298210330077",
      "distance_km": "185.30162236363262",
      "name_score": "0.5",
      "admin_score": "0.0",
      "dist_score": "0.691163962727279",
      "total_score": "0.5073491888181837"
    }
  ],
  "0633ea24876c9db4427c8c505badd0ff768989f4": [
    {
      "doc_id": "0633ea24876c9db4427c8c505badd0ff768989f4",
      "place_name": "Sydney",
      "geonameid": "2147714",
      "hit_lat": "-33.86785",
      "hit_lon": "151.20732",
      "hit_country_iso2": "AU",
      "hit_admin1_name": "New South Wales",
      "hit_admin1_code": "02",
      "feature_class": "P",
      "feature_code": "PPLA",
      "candidate_reason": "by_country",
      "hit_type": "normal",
      "rank": "1",
      "ims_facility_id": "SYD",
      "unlocode": "AUSYD",
      "facility_name": "Sydney",
      "facility_city": "New South Wales",
      "facility_country_iso2": "AU",
      "facility_admin1": "NSW",
      "facility_lat": "-33.85",
      "facility_lon": "151.2",
      "distance_km": "2.0967603140350772",
      "name_score": "1.0",
      "admin_score": "0.0",
      "dist_score": "0.9720431958128657",
      "total_score": "0.8916129587438597"
    },
    {
      "doc_id": "0633ea24876c9db4427c8c505badd0ff768989f4",
      "place_name": "Sydney",
      "geonameid": "2147714",
      "hit_lat": "-33.86785",
      "hit_lon": "151.20732",
      "hit_country_iso2": "AU",
      "hit_admin1_name": "New South Wales",
      "hit_admin1_code": "02",
      "feature_class": "P",
      "feature_code": "PPLA",
      "candidate_reason": "by_country",
      "hit_type": "normal",
      "rank": "2",
      "ims_facility_id": "PJK",
      "unlocode": "AUPJK",
      "facility_name": "Port Jackson",
      "facility_city": "New South Wales",
      "facility_country_iso2": "AU",
      "facility_admin1": "NSW",
      "facility_lat": "-33.858333333",
      "facility_lon": "151.233333333",
      "distance_km": "2.6246675779411373",
      "name_score": "0.6",
      "admin_score": "0.0",
      "dist_score": "0.9650044322941181",
      "total_score": "0.6495013296882355"
    },
    {
      "doc_id": "0633ea24876c9db4427c8c505badd0ff768989f4",
      "place_name": "Sydney",
      "geonameid": "2147714",
      "hit_lat": "-33.86785",
      "hit_lon": "151.20732",
      "hit_country_iso2": "AU",
      "hit_admin1_name": "New South Wales",
      "hit_admin1_code": "02",
      "feature_class": "P",
      "feature_code": "PPLA",
      "candidate_reason": "by_country",
      "hit_type": "normal",
      "rank": "3",
      "ims_facility_id": "CMO",
      "unlocode": "AUCMO",
      "facility_name": "Como",
      "facility_city": "New South Wales",
      "facility_country_iso2": "AU",
      "facility_admin1": "NSW",
      "facility_lat": "-34.0",
      "facility_lon": "151.06667",
      "distance_km": "19.603534022381574",
      "name_score": "0.6666666666666666",
      "admin_score": "0.0",
      "dist_score": "0.7386195463682457",
      "total_score": "0.6215858639104737"
    },
    {
      "doc_id": "0633ea24876c9db4427c8c505badd0ff768989f4",
      "place_name": "Sydney",
      "geonameid": "2147714",
      "hit_lat": "-33.86785",
      "hit_lon": "151.20732",
      "hit_country_iso2": "AU",
      "hit_admin1_name": "New South Wales",
      "hit_admin1_code": "02",
      "feature_class": "P",
      "feature_code": "PPLA",
      "candidate_reason": "by_country",
      "hit_type": "normal",
      "rank": "4",
      "ims_facility_id": "ANN",
      "unlocode": "AUANN",
      "facility_name": "Annandale",
      "facility_city": "New South Wales",
      "facility_country_iso2": "AU",
      "facility_admin1": "NSW",
      "facility_lat": "-33.88333",
      "facility_lon": "151.16667",
      "distance_km": "4.128716616329747",
      "name_score": "0.5217391304347826",
      "admin_score": "0.0",
      "dist_score": "0.9449504451156033",
      "total_score": "0.5965286117955505"
    },
    {
      "doc_id": "0633ea24876c9db4427c8c505badd0ff768989f4",
      "place_name": "Sydney",
      "geonameid": "2147714",
      "hit_lat": "-33.86785",
      "hit_lon": "151.20732",
      "hit_country_iso2": "AU",
      "hit_admin1_name": "New South Wales",
      "hit_admin1_code": "02",
      "feature_class": "P",
      "feature_code": "PPLA",
      "candidate_reason": "by_country",
      "hit_type": "normal",
      "rank": "5",
      "ims_facility_id": "FWT",
      "unlocode": "AUFWT",
      "facility_name": "Freshwater",
      "facility_city": "New South Wales",
      "facility_country_iso2": "AU",
      "facility_admin1": "NSW",
      "facility_lat": "-33.76667",
      "facility_lon": "151.28333",
      "distance_km": "13.26223218518913",
      "name_score": "0.5714285714285714",
      "admin_score": "0.0",
      "dist_score": "0.8231702375308116",
      "total_score": "0.5898082141163863"
    },
    {
      "doc_id": "0633ea24876c9db4427c8c505badd0ff768989f4",
      "place_name": "Kingdom of the Netherlands",
      "geonameid": "2750405",
      "hit_lat": "52.25",
      "hit_lon": "5.75",
      "hit_country_iso2": "NL",
      "hit_admin1_name": "",
      "hit_admin1_code": "00",
      "feature_class": "A",
      "feature_code": "PCLI",
      "candidate_reason": "by_country",
      "hit_type": "country",
      "rank": "3",
      "ims_facility_id": "ZEW",
      "unlocode": "NLZEW",
      "facility_name": "Zeewolde",
      "facility_city": "Flevoland",
      "facility_country_iso2": "NL",
      "facility_admin1": "FL",
      "facility_lat": "52.35",
      "facility_lon": "5.55",
      "distance_km": "17.566891263745912",
      "name_score": "0.5957446808510638",
      "admin_score": "0.0",
      "dist_score": "0.7657747831500545",
      "total_score": "0.5871792434556546"
    },
    {
      "doc_id": "0633ea24876c9db4427c8c505badd0ff768989f4",
      "place_name": "Sydney",
      "geonameid": "2147714",
      "hit_lat": "-33.86785",
      "hit_lon": "151.20732",
      "hit_country_iso2": "AU",
      "hit_admin1_name": "New South Wales",
      "hit_admin1_code": "02",
      "feature_class": "P",
      "feature_code": "PPLA",
      "candidate_reason": "by_country",
      "hit_type": "normal",
      "rank": "6",
      "ims_facility_id": "BE9",
      "unlocode": "AUBE9",
      "facility_name": "Belrose",
      "facility_city": "New South Wales",
      "facility_country_iso2": "AU",
      "facility_admin1": "NSW",
      "facility_lat": "-33.73333",
      "facility_lon": "151.21667",
      "distance_km": "14.982870766956657",
      "name_score": "0.5714285714285714",
      "admin_score": "0.0",
      "dist_score": "0.8002283897739113",
      "total_score": "0.5829256597893162"
    },
    {
      "doc_id": "0633ea24876c9db4427c8c505badd0ff768989f4",
      "place_name": "Sydney",
      "geonameid": "2147714",
      "hit_lat": "-33.86785",
      "hit_lon": "151.20732",
      "hit_country_iso2": "AU",
      "hit_admin1_name": "New South Wales",
      "hit_admin1_code": "02",
      "feature_class": "P",
      "feature_code": "PPLA",
      "candidate_reason": "by_country",
      "hit_type": "normal",
      "rank": "7",
      "ims_facility_id": "CHA",
      "unlocode": "AUCHA",
      "facility_name": "Chatswood",
      "facility_city": "New South Wales",
      "facility_country_iso2": "AU",
      "facility_admin1": "NSW",
      "facility_lat": "-33.7967377",
      "facility_lon": "151.1814306",
      "distance_km": "8.261003705410875",
      "name_score": "0.5217391304347826",
      "admin_score": "0.0",
      "dist_score": "0.889853283927855",
      "total_score": "0.579999463439226"
    },
    {
      "doc_id": "0633ea24876c9db4427c8c505badd0ff768989f4",
      "place_name": "Sydney",
      "geonameid": "2147714",
      "hit_lat": "-33.86785",
      "hit_lon": "151.20732",
      "hit_country_iso2": "AU",
      "hit_admin1_name": "New South Wales",
      "hit_admin1_code": "02",
      "feature_class": "P",
      "feature_code": "PPLA",
      "candidate_reason": "by_country",
      "hit_type": "normal",
      "rank": "8",
      "ims_facility_id": "DSW",
      "unlocode": "AUDSW",
      "facility_name": "Padstow",
      "facility_city": "New South Wales",
      "facility_country_iso2": "AU",
      "facility_admin1": "NSW",
      "facility_lat": "-33.95",
      "facility_lon": "151.03333",
      "distance_km": "18.47295451465248",
      "name_score": "0.5714285714285714",
      "admin_score": "0.0",
      "dist_score": "0.7536939398046336",
      "total_score": "0.5689653247985329"
    },
    {
      "doc_id": "0633ea24876c9db4427c8c505badd0ff768989f4",
      "place_name": "Sydney",
      "geonameid": "2147714",
      "hit_lat": "-33.86785",
      "hit_lon": "151.20732",
      "hit_country_iso2": "AU",
      "hit_admin1_name": "New South Wales",
      "hit_admin1_code": "02",
      "feature_class": "P",
      "feature_code": "PPLA",
      "candidate_reason": "by_country",
      "hit_type": "normal",
      "rank": "9",
      "ims_facility_id": "REV",
      "unlocode": "AUREV",
      "facility_name": "Revesby",
      "facility_city": "New South Wales",
      "facility_country_iso2": "AU",
      "facility_admin1": "NSW",
      "facility_lat": "-33.95",
      "facility_lon": "151.0",
      "distance_km": "21.20102372434926",
      "name_score": "0.5714285714285714",
      "admin_score": "0.0",
      "dist_score": "0.7173196836753433",
      "total_score": "0.5580530479597458"
    },
    {
      "doc_id": "0633ea24876c9db4427c8c505badd0ff768989f4",
      "place_name": "Sydney",
      "geonameid": "2147714",
      "hit_lat": "-33.86785",
      "hit_lon": "151.20732",
      "hit_country_iso2": "AU",
      "hit_admin1_name": "New South Wales",
      "hit_admin1_code": "02",
      "feature_class": "P",
      "feature_code": "PPLA",
      "candidate_reason": "by_country",
      "hit_type": "normal",
      "rank": "10",
      "ims_facility_id": "BSA",
      "unlocode": "AUBSA",
      "facility_name": "Brighton-Le-Sands",
      "facility_city": "New South Wales",
      "facility_country_iso2": "AU",
      "facility_admin1": "NSW",
      "facility_lat": "-33.95",
      "facility_lon": "151.15",
      "distance_km": "10.555703615028092",
      "name_score": "0.5",
      "admin_score": "0.0",
      "dist_score": "0.8592572851329587",
      "total_score": "0.5577771855398876"
    },
    {
      "doc_id": "0633ea24876c9db4427c8c505badd0ff768989f4",
      "place_name": "Sydney",
      "geonameid": "2147714",
      "hit_lat": "-33.86785",
      "hit_lon": "151.20732",
      "hit_country_iso2": "AU",
      "hit_admin1_name": "New South Wales",
      "hit_admin1_code": "02",
      "feature_class": "P",
      "feature_code": "PPLA",
      "candidate_reason": "by_country",
      "hit_type": "normal",
      "rank": "11",
      "ims_facility_id": "CLF",
      "unlocode": "AUCLF",
      "facility_name": "Carlingford",
      "facility_city": "New South Wales",
      "facility_country_iso2": "AU",
      "facility_admin1": "NSW",
      "facility_lat": "-33.78333",
      "facility_lon": "151.05",
      "distance_km": "17.306394824160574",
      "name_score": "0.5",
      "admin_score": "0.0",
      "dist_score": "0.7692480690111924",
      "total_score": "0.5307744207033577"
    },
    {
      "doc_id": "0633ea24876c9db4427c8c505badd0ff768989f4",
      "place_name": "Kingdom of the Netherlands",
      "geonameid": "2750405",
      "hit_lat": "52.25",
      "hit_lon": "5.75",
      "hit_country_iso2": "NL",
      "hit_admin1_name": "",
      "hit_admin1_code": "00",
      "feature_class": "A",
      "feature_code": "PCLI",
      "candidate_reason": "by_country",
      "hit_type": "country",
      "rank": "37",
      "ims_facility_id": "AER",
      "unlocode": "NLAER",
      "facility_name": "Almere",
      "facility_city": "Flevoland",
      "facility_country_iso2": "NL",
      "facility_admin1": "FL",
      "facility_lat": "52.36667",
      "facility_lon": "5.21667",
      "distance_km": "38.509770568414616",
      "name_score": "0.6222222222222222",
      "admin_score": "0.0",
      "dist_score": "0.48653639242113844",
      "total_score": "0.5192942510596749"
    },